[
  {
    "code": "KNO",
    "name": "ABEAM KUNOTH",
    "state": "NT",
    "lat_dms": "233230S",
    "lon_dms": "1333300E",
    "latitude": -23.5416667,
    "longitude": 133.55,
    "source_page": 1
  },
  {
    "code": "ABKL",
    "name": "ABM KILTO",
    "state": "WA",
    "lat_dms": "174419S",
    "lon_dms": "1224407E",
    "latitude": -17.7386111,
    "longitude": 122.7352778,
    "source_page": 1
  },
  {
    "code": "TVT",
    "name": "ABM TV TOWERS",
    "state": "QLD",
    "lat_dms": "272830S",
    "lon_dms": "1525500E",
    "latitude": -27.475,
    "longitude": 152.9166667,
    "source_page": 1
  },
  {
    "code": "ACE",
    "name": "ACADEMY",
    "state": "VIC",
    "lat_dms": "375345S",
    "lon_dms": "1451050E",
    "latitude": -37.8958333,
    "longitude": 145.1805556,
    "source_page": 1
  },
  {
    "code": "ANI",
    "name": "ACHERON ISLAND",
    "state": "QLD",
    "lat_dms": "185740S",
    "lon_dms": "1463810E",
    "latitude": -18.9611111,
    "longitude": 146.6361111,
    "source_page": 1
  },
  {
    "code": "ACLD",
    "name": "ACLAND",
    "state": "QLD",
    "lat_dms": "271815S",
    "lon_dms": "1514120E",
    "latitude": -27.3041667,
    "longitude": 151.6888889,
    "source_page": 1
  },
  {
    "code": "ACTY",
    "name": "ADELAIDE CBD",
    "state": "SA",
    "lat_dms": "345600S",
    "lon_dms": "1383600E",
    "latitude": -34.9333333,
    "longitude": 138.6,
    "source_page": 1
  },
  {
    "code": "ADB",
    "name": "ADELAIDE RIVER BRIDGE",
    "state": "NT",
    "lat_dms": "123930S",
    "lon_dms": "1312000E",
    "latitude": -12.6583333,
    "longitude": 131.3333333,
    "source_page": 1
  },
  {
    "code": "ADRM",
    "name": "ADELAIDE RIVER MOUTH",
    "state": "NT",
    "lat_dms": "121306S",
    "lon_dms": "1311436E",
    "latitude": -12.2183333,
    "longitude": 131.2433333,
    "source_page": 1
  },
  {
    "code": "AOG",
    "name": "ADELONG",
    "state": "NSW",
    "lat_dms": "351830S",
    "lon_dms": "1480400E",
    "latitude": -35.3083333,
    "longitude": 148.0666667,
    "source_page": 1
  },
  {
    "code": "ADI",
    "name": "ADMIRALTY ISLAND",
    "state": "QLD",
    "lat_dms": "165900S",
    "lon_dms": "1454630E",
    "latitude": -16.9833333,
    "longitude": 145.775,
    "source_page": 1
  },
  {
    "code": "ADWD",
    "name": "ADVENTURE WORLD",
    "state": "WA",
    "lat_dms": "320543S",
    "lon_dms": "1154904E",
    "latitude": -32.0952778,
    "longitude": 115.8177778,
    "source_page": 1
  },
  {
    "code": "ALON",
    "name": "ALAWOONA",
    "state": "SA",
    "lat_dms": "344500S",
    "lon_dms": "1403000E",
    "latitude": -34.75,
    "longitude": 140.5,
    "source_page": 1
  },
  {
    "code": "APL",
    "name": "ALBERT PARK LAKE",
    "state": "VIC",
    "lat_dms": "375120S",
    "lon_dms": "1445830E",
    "latitude": -37.8555556,
    "longitude": 144.975,
    "source_page": 1
  },
  {
    "code": "AKMW",
    "name": "ALKIMOS WATER",
    "state": "WA",
    "lat_dms": "313649S",
    "lon_dms": "1154036E",
    "latitude": -31.6136111,
    "longitude": 115.6766667,
    "source_page": 1
  },
  {
    "code": "ALBA",
    "name": "ALOOMBA",
    "state": "QLD",
    "lat_dms": "170618S",
    "lon_dms": "1455000E",
    "latitude": -17.105,
    "longitude": 145.8333333,
    "source_page": 1
  },
  {
    "code": "ALOA",
    "name": "ALTONA",
    "state": "VIC",
    "lat_dms": "375200S",
    "lon_dms": "1445100E",
    "latitude": -37.8666667,
    "longitude": 144.85,
    "source_page": 1
  },
  {
    "code": "ALTS",
    "name": "ALTONA SOUTH",
    "state": "VIC",
    "lat_dms": "375244S",
    "lon_dms": "1444836E",
    "latitude": -37.8788889,
    "longitude": 144.81,
    "source_page": 1
  },
  {
    "code": "ANG",
    "name": "ANGLESEA",
    "state": "VIC",
    "lat_dms": "382500S",
    "lon_dms": "1441100E",
    "latitude": -38.4166667,
    "longitude": 144.1833333,
    "source_page": 1
  },
  {
    "code": "APM",
    "name": "ANM PAPER MILL",
    "state": "NSW",
    "lat_dms": "360000S",
    "lon_dms": "1465900E",
    "latitude": -36.0,
    "longitude": 146.9833333,
    "source_page": 1
  },
  {
    "code": "ANA",
    "name": "ANNA BAY",
    "state": "NSW",
    "lat_dms": "324700S",
    "lon_dms": "1520500E",
    "latitude": -32.7833333,
    "longitude": 152.0833333,
    "source_page": 1
  },
  {
    "code": "ANPL",
    "name": "ANNA PLAINS",
    "state": "WA",
    "lat_dms": "191600S",
    "lon_dms": "1213100E",
    "latitude": -19.2666667,
    "longitude": 121.5166667,
    "source_page": 1
  },
  {
    "code": "ANP",
    "name": "ANTILL PLAINS",
    "state": "QLD",
    "lat_dms": "192600S",
    "lon_dms": "1465000E",
    "latitude": -19.4333333,
    "longitude": 146.8333333,
    "source_page": 1
  },
  {
    "code": "ARCD",
    "name": "ARCADIA HS",
    "state": "QLD",
    "lat_dms": "205200S",
    "lon_dms": "1380400E",
    "latitude": -20.8666667,
    "longitude": 138.0666667,
    "source_page": 1
  },
  {
    "code": "AEN",
    "name": "ARDENT",
    "state": "QLD",
    "lat_dms": "264642S",
    "lon_dms": "1523442E",
    "latitude": -26.7783333,
    "longitude": 152.5783333,
    "source_page": 1
  },
  {
    "code": "SHOP",
    "name": "ARMADALE SHOPS",
    "state": "WA",
    "lat_dms": "320854S",
    "lon_dms": "1160057E",
    "latitude": -32.1483333,
    "longitude": 116.0158333,
    "source_page": 1
  },
  {
    "code": "AWP",
    "name": "ARROWSMITH PT",
    "state": "NT",
    "lat_dms": "131500S",
    "lon_dms": "1362700E",
    "latitude": -13.25,
    "longitude": 136.45,
    "source_page": 1
  },
  {
    "code": "ASU",
    "name": "ARUNDEL SUBSTATION",
    "state": "NSW",
    "lat_dms": "351230S",
    "lon_dms": "1472400E",
    "latitude": -35.2083333,
    "longitude": 147.4,
    "source_page": 1
  },
  {
    "code": "ATN",
    "name": "ATHERTON",
    "state": "QLD",
    "lat_dms": "171530S",
    "lon_dms": "1453030E",
    "latitude": -17.2583333,
    "longitude": 145.5083333,
    "source_page": 1
  },
  {
    "code": "ATG",
    "name": "ATTUNGA",
    "state": "NSW",
    "lat_dms": "305600S",
    "lon_dms": "1505020E",
    "latitude": -30.9333333,
    "longitude": 150.8388889,
    "source_page": 1
  },
  {
    "code": "ALEC",
    "name": "AUSTRALIAN LIVESTOCK EQUINE CENT",
    "state": "NSW",
    "lat_dms": "310805S",
    "lon_dms": "1505516E",
    "latitude": -31.1347222,
    "longitude": 150.9211111,
    "source_page": 1
  },
  {
    "code": "AVNL",
    "name": "AVENEL",
    "state": "VIC",
    "lat_dms": "365347S",
    "lon_dms": "1451359E",
    "latitude": -36.8963889,
    "longitude": 145.2330556,
    "source_page": 1
  },
  {
    "code": "BADA",
    "name": "BABINDA",
    "state": "QLD",
    "lat_dms": "172030S",
    "lon_dms": "1455530E",
    "latitude": -17.3416667,
    "longitude": 145.925,
    "source_page": 1
  },
  {
    "code": "BMP",
    "name": "BACCHUS MARSH TOWNSHIP",
    "state": "VIC",
    "lat_dms": "374030S",
    "lon_dms": "1442620E",
    "latitude": -37.675,
    "longitude": 144.4388889,
    "source_page": 1
  },
  {
    "code": "BKRL",
    "name": "BAKER LAKE",
    "state": "WA",
    "lat_dms": "264240S",
    "lon_dms": "1255847E",
    "latitude": -26.7111111,
    "longitude": 125.9797222,
    "source_page": 1
  },
  {
    "code": "BLHS",
    "name": "BALD HILLS MAST",
    "state": "QLD",
    "lat_dms": "271847S",
    "lon_dms": "1530058E",
    "latitude": -27.3130556,
    "longitude": 153.0161111,
    "source_page": 1
  },
  {
    "code": "BOA",
    "name": "BALMORAL",
    "state": "VIC",
    "lat_dms": "371500S",
    "lon_dms": "1415000E",
    "latitude": -37.25,
    "longitude": 141.8333333,
    "source_page": 1
  },
  {
    "code": "BANG",
    "name": "BANGALOW",
    "state": "NSW",
    "lat_dms": "284112S",
    "lon_dms": "1533100E",
    "latitude": -28.6866667,
    "longitude": 153.5166667,
    "source_page": 1
  },
  {
    "code": "BDT",
    "name": "BARANDUDA TOWERS",
    "state": "VIC",
    "lat_dms": "361500S",
    "lon_dms": "1465100E",
    "latitude": -36.25,
    "longitude": 146.85,
    "source_page": 1
  },
  {
    "code": "BARB",
    "name": "BARBAGALLO RACEWAY",
    "state": "WA",
    "lat_dms": "314000S",
    "lon_dms": "1154700E",
    "latitude": -31.6666667,
    "longitude": 115.7833333,
    "source_page": 1
  },
  {
    "code": "BHCP",
    "name": "BARN HILL CARAVAN PARK",
    "state": "WA",
    "lat_dms": "182207S",
    "lon_dms": "1220226E",
    "latitude": -18.3686111,
    "longitude": 122.0405556,
    "source_page": 1
  },
  {
    "code": "BSL",
    "name": "BARNES HILL",
    "state": "QLD",
    "lat_dms": "271200S",
    "lon_dms": "1520600E",
    "latitude": -27.2,
    "longitude": 152.1,
    "source_page": 1
  },
  {
    "code": "BRNJ",
    "name": "BARRENJOEY HEAD",
    "state": "NSW",
    "lat_dms": "333448S",
    "lon_dms": "1511936E",
    "latitude": -33.58,
    "longitude": 151.3266667,
    "source_page": 1
  },
  {
    "code": "BRR",
    "name": "BARRINGUN",
    "state": "NSW",
    "lat_dms": "290100S",
    "lon_dms": "1454200E",
    "latitude": -29.0166667,
    "longitude": 145.7,
    "source_page": 1
  },
  {
    "code": "BRGE",
    "name": "BARRON GORGE",
    "state": "QLD",
    "lat_dms": "165100S",
    "lon_dms": "1453900E",
    "latitude": -16.85,
    "longitude": 145.65,
    "source_page": 1
  },
  {
    "code": "BPN",
    "name": "BARWON PRISON",
    "state": "VIC",
    "lat_dms": "375900S",
    "lon_dms": "1442100E",
    "latitude": -37.9833333,
    "longitude": 144.35,
    "source_page": 1
  },
  {
    "code": "KALK",
    "name": "BASS STRAIT",
    "state": "TAS",
    "lat_dms": "393000S",
    "lon_dms": "1423000E",
    "latitude": -39.5,
    "longitude": 142.5,
    "source_page": 1
  },
  {
    "code": "BATB",
    "name": "BATEMANS BAY",
    "state": "NSW",
    "lat_dms": "354300S",
    "lon_dms": "1501100E",
    "latitude": -35.7166667,
    "longitude": 150.1833333,
    "source_page": 1
  },
  {
    "code": "BTI",
    "name": "BATHURST ISLAND",
    "state": "NT",
    "lat_dms": "114559S",
    "lon_dms": "1303700E",
    "latitude": -11.7663889,
    "longitude": 130.6166667,
    "source_page": 1
  },
  {
    "code": "BNE",
    "name": "BATMAN BRIDGE",
    "state": "TAS",
    "lat_dms": "411303S",
    "lon_dms": "1465451E",
    "latitude": -41.2175,
    "longitude": 146.9141667,
    "source_page": 1
  },
  {
    "code": "BAW",
    "name": "BAYWEST",
    "state": "VIC",
    "lat_dms": "380000S",
    "lon_dms": "1445536E",
    "latitude": -38.0,
    "longitude": 144.9266667,
    "source_page": 1
  },
  {
    "code": "BCM",
    "name": "BEACHMERE",
    "state": "QLD",
    "lat_dms": "270700S",
    "lon_dms": "1530300E",
    "latitude": -27.1166667,
    "longitude": 153.05,
    "source_page": 1
  },
  {
    "code": "BIV",
    "name": "BECTIVE HS",
    "state": "NSW",
    "lat_dms": "305820S",
    "lon_dms": "1504418E",
    "latitude": -30.9722222,
    "longitude": 150.7383333,
    "source_page": 1
  },
  {
    "code": "BENT",
    "name": "BEECHMONT",
    "state": "QLD",
    "lat_dms": "280800S",
    "lon_dms": "1531200E",
    "latitude": -28.1333333,
    "longitude": 153.2,
    "source_page": 2
  },
  {
    "code": "BCH",
    "name": "BEECHWORTH",
    "state": "VIC",
    "lat_dms": "362130S",
    "lon_dms": "1464120E",
    "latitude": -36.3583333,
    "longitude": 146.6888889,
    "source_page": 2
  },
  {
    "code": "BLR",
    "name": "BELLBROOK",
    "state": "NSW",
    "lat_dms": "304918S",
    "lon_dms": "1523040E",
    "latitude": -30.8216667,
    "longitude": 152.5111111,
    "source_page": 2
  },
  {
    "code": "BLIG",
    "name": "BELLINGEN",
    "state": "NSW",
    "lat_dms": "302720S",
    "lon_dms": "1525350E",
    "latitude": -30.4555556,
    "longitude": 152.8972222,
    "source_page": 2
  },
  {
    "code": "BENV",
    "name": "BEN NEVIS",
    "state": "TAS",
    "lat_dms": "412440S",
    "lon_dms": "1473830E",
    "latitude": -41.4111111,
    "longitude": 147.6416667,
    "source_page": 2
  },
  {
    "code": "BND",
    "name": "BENDEMEER",
    "state": "NSW",
    "lat_dms": "305300S",
    "lon_dms": "1510900E",
    "latitude": -30.8833333,
    "longitude": 151.15,
    "source_page": 2
  },
  {
    "code": "BEE",
    "name": "BERILEE",
    "state": "NSW",
    "lat_dms": "333712S",
    "lon_dms": "1510618E",
    "latitude": -33.62,
    "longitude": 151.105,
    "source_page": 2
  },
  {
    "code": "BESI",
    "name": "BESSIE POINT",
    "state": "QLD",
    "lat_dms": "165412S",
    "lon_dms": "1454848E",
    "latitude": -16.9033333,
    "longitude": 145.8133333,
    "source_page": 2
  },
  {
    "code": "BVG",
    "name": "BEVERIDGE",
    "state": "VIC",
    "lat_dms": "372820S",
    "lon_dms": "1445815E",
    "latitude": -37.4722222,
    "longitude": 144.9708333,
    "source_page": 2
  },
  {
    "code": "BDTN",
    "name": "BIDDESTON",
    "state": "QLD",
    "lat_dms": "273330S",
    "lon_dms": "1514300E",
    "latitude": -27.5583333,
    "longitude": 151.7166667,
    "source_page": 2
  },
  {
    "code": "BIDG",
    "name": "BIDGEE 1",
    "state": "ACT",
    "lat_dms": "352128S",
    "lon_dms": "1490056E",
    "latitude": -35.3577778,
    "longitude": 149.0155556,
    "source_page": 2
  },
  {
    "code": "BDGE",
    "name": "BIDGEE 2",
    "state": "ACT",
    "lat_dms": "352659S",
    "lon_dms": "1490316E",
    "latitude": -35.4497222,
    "longitude": 149.0544444,
    "source_page": 2
  },
  {
    "code": "BIBA",
    "name": "BINGIL BAY",
    "state": "QLD",
    "lat_dms": "174940S",
    "lon_dms": "1460605E",
    "latitude": -17.8277778,
    "longitude": 146.1013889,
    "source_page": 2
  },
  {
    "code": "BDWD",
    "name": "BIRDWOOD",
    "state": "SA",
    "lat_dms": "344924S",
    "lon_dms": "1385736E",
    "latitude": -34.8233333,
    "longitude": 138.96,
    "source_page": 2
  },
  {
    "code": "BCT",
    "name": "BLACK MT",
    "state": "QLD",
    "lat_dms": "210410S",
    "lon_dms": "1490545E",
    "latitude": -21.0694444,
    "longitude": 149.0958333,
    "source_page": 2
  },
  {
    "code": "BKM",
    "name": "BLACK MT",
    "state": "ACT",
    "lat_dms": "351630S",
    "lon_dms": "1490600E",
    "latitude": -35.275,
    "longitude": 149.1,
    "source_page": 2
  },
  {
    "code": "BKIS",
    "name": "BLACKSMITH ISLAND",
    "state": "QLD",
    "lat_dms": "203800S",
    "lon_dms": "1490400E",
    "latitude": -20.6333333,
    "longitude": 149.0666667,
    "source_page": 2
  },
  {
    "code": "BLIC",
    "name": "BLI BLI CASTLE",
    "state": "QLD",
    "lat_dms": "263730S",
    "lon_dms": "1530200E",
    "latitude": -26.625,
    "longitude": 153.0333333,
    "source_page": 2
  },
  {
    "code": "BTM",
    "name": "BOAT HARBOUR",
    "state": "TAS",
    "lat_dms": "405700S",
    "lon_dms": "1453800E",
    "latitude": -40.95,
    "longitude": 145.6333333,
    "source_page": 2
  },
  {
    "code": "BOAT",
    "name": "BOATYARD",
    "state": "WA",
    "lat_dms": "320902S",
    "lon_dms": "1154557E",
    "latitude": -32.1505556,
    "longitude": 115.7658333,
    "source_page": 2
  },
  {
    "code": "BODD",
    "name": "BODDINGTON",
    "state": "WA",
    "lat_dms": "324800S",
    "lon_dms": "1162800E",
    "latitude": -32.8,
    "longitude": 116.4666667,
    "source_page": 2
  },
  {
    "code": "BGN",
    "name": "BOGANTUNGAN",
    "state": "QLD",
    "lat_dms": "233900S",
    "lon_dms": "1471800E",
    "latitude": -23.65,
    "longitude": 147.3,
    "source_page": 2
  },
  {
    "code": "BLTB",
    "name": "BOLTE BRIDGE",
    "state": "VIC",
    "lat_dms": "374909S",
    "lon_dms": "1445556E",
    "latitude": -37.8191667,
    "longitude": 144.9322222,
    "source_page": 2
  },
  {
    "code": "BSP",
    "name": "BOND SPRINGS",
    "state": "NT",
    "lat_dms": "233100S",
    "lon_dms": "1335100E",
    "latitude": -23.5166667,
    "longitude": 133.85,
    "source_page": 2
  },
  {
    "code": "BUVY",
    "name": "BOND UNIVERSITY",
    "state": "QLD",
    "lat_dms": "280436S",
    "lon_dms": "1532436E",
    "latitude": -28.0766667,
    "longitude": 153.41,
    "source_page": 2
  },
  {
    "code": "BNG",
    "name": "BONEGILLA",
    "state": "VIC",
    "lat_dms": "360840S",
    "lon_dms": "1470045E",
    "latitude": -36.1444444,
    "longitude": 147.0125,
    "source_page": 2
  },
  {
    "code": "BONG",
    "name": "BONGAREE",
    "state": "QLD",
    "lat_dms": "270500S",
    "lon_dms": "1531100E",
    "latitude": -27.0833333,
    "longitude": 153.1833333,
    "source_page": 2
  },
  {
    "code": "BOON",
    "name": "BOONDALL ENTERTAINMENT CENTRE",
    "state": "QLD",
    "lat_dms": "272030S",
    "lon_dms": "1530503E",
    "latitude": -27.3416667,
    "longitude": 153.0841667,
    "source_page": 2
  },
  {
    "code": "BOAR",
    "name": "BORUMBA RESV",
    "state": "QLD",
    "lat_dms": "263030S",
    "lon_dms": "1523500E",
    "latitude": -26.5083333,
    "longitude": 152.5833333,
    "source_page": 2
  },
  {
    "code": "BBH",
    "name": "BOTANY BAY HEADS",
    "state": "NSW",
    "lat_dms": "340030S",
    "lon_dms": "1511430E",
    "latitude": -34.0083333,
    "longitude": 151.2416667,
    "source_page": 2
  },
  {
    "code": "BOWB",
    "name": "BOWEN BRIDGE",
    "state": "TAS",
    "lat_dms": "424900S",
    "lon_dms": "1471800E",
    "latitude": -42.8166667,
    "longitude": 147.3,
    "source_page": 2
  },
  {
    "code": "BWV",
    "name": "BOWENVILLE",
    "state": "QLD",
    "lat_dms": "271820S",
    "lon_dms": "1512915E",
    "latitude": -27.3055556,
    "longitude": 151.4875,
    "source_page": 2
  },
  {
    "code": "BWMS",
    "name": "BOWMANS",
    "state": "SA",
    "lat_dms": "340900S",
    "lon_dms": "1381600E",
    "latitude": -34.15,
    "longitude": 138.2666667,
    "source_page": 2
  },
  {
    "code": "BWL",
    "name": "BOWRAL",
    "state": "NSW",
    "lat_dms": "342845S",
    "lon_dms": "1502505E",
    "latitude": -34.4791667,
    "longitude": 150.4180556,
    "source_page": 2
  },
  {
    "code": "BOV",
    "name": "BOWRAVILLE",
    "state": "NSW",
    "lat_dms": "303900S",
    "lon_dms": "1525100E",
    "latitude": -30.65,
    "longitude": 152.85,
    "source_page": 2
  },
  {
    "code": "BPI",
    "name": "BRAMPTON ISLAND",
    "state": "QLD",
    "lat_dms": "204820S",
    "lon_dms": "1491600E",
    "latitude": -20.8055556,
    "longitude": 149.2666667,
    "source_page": 2
  },
  {
    "code": "BAXT",
    "name": "BRANXTON",
    "state": "NSW",
    "lat_dms": "324000S",
    "lon_dms": "1512100E",
    "latitude": -32.6666667,
    "longitude": 151.35,
    "source_page": 2
  },
  {
    "code": "BZA",
    "name": "BREEZA",
    "state": "NSW",
    "lat_dms": "311500S",
    "lon_dms": "1502800E",
    "latitude": -31.25,
    "longitude": 150.4666667,
    "source_page": 2
  },
  {
    "code": "BBBG",
    "name": "BRIBIE BRIDGE",
    "state": "QLD",
    "lat_dms": "270425S",
    "lon_dms": "1530846E",
    "latitude": -27.0736111,
    "longitude": 153.1461111,
    "source_page": 2
  },
  {
    "code": "BBI",
    "name": "BRIBIE ISLAND",
    "state": "QLD",
    "lat_dms": "270001S",
    "lon_dms": "1530835E",
    "latitude": -27.0002778,
    "longitude": 153.1430556,
    "source_page": 2
  },
  {
    "code": "BTO",
    "name": "BRIGHTON",
    "state": "VIC",
    "lat_dms": "375440S",
    "lon_dms": "1445910E",
    "latitude": -37.9111111,
    "longitude": 144.9861111,
    "source_page": 2
  },
  {
    "code": "BTJ",
    "name": "BRIGHTON JETTY",
    "state": "SA",
    "lat_dms": "350100S",
    "lon_dms": "1383100E",
    "latitude": -35.0166667,
    "longitude": 138.5166667,
    "source_page": 2
  },
  {
    "code": "BRY",
    "name": "BRINGELLY",
    "state": "NSW",
    "lat_dms": "335630S",
    "lon_dms": "1504342E",
    "latitude": -33.9416667,
    "longitude": 150.7283333,
    "source_page": 2
  },
  {
    "code": "BRIN",
    "name": "BRINSMEAD",
    "state": "QLD",
    "lat_dms": "165430S",
    "lon_dms": "1454230E",
    "latitude": -16.9083333,
    "longitude": 145.7083333,
    "source_page": 2
  },
  {
    "code": "BCTY",
    "name": "BRISBANE CBD",
    "state": "QLD",
    "lat_dms": "272800S",
    "lon_dms": "1530200E",
    "latitude": -27.4666667,
    "longitude": 153.0333333,
    "source_page": 2
  },
  {
    "code": "BNCG",
    "name": "BRISBANE CRICKET GROUND",
    "state": "QLD",
    "lat_dms": "272909S",
    "lon_dms": "1530217E",
    "latitude": -27.4858333,
    "longitude": 153.0380556,
    "source_page": 2
  },
  {
    "code": "BDF",
    "name": "BROADFORD",
    "state": "VIC",
    "lat_dms": "371230S",
    "lon_dms": "1450230E",
    "latitude": -37.2083333,
    "longitude": 145.0416667,
    "source_page": 2
  },
  {
    "code": "BYN",
    "name": "BROOKLYN",
    "state": "VIC",
    "lat_dms": "374940S",
    "lon_dms": "1445130E",
    "latitude": -37.8277778,
    "longitude": 144.8583333,
    "source_page": 2
  },
  {
    "code": "BBG",
    "name": "BROOKLYN BRIDGE",
    "state": "NSW",
    "lat_dms": "333227S",
    "lon_dms": "1511145E",
    "latitude": -33.5408333,
    "longitude": 151.1958333,
    "source_page": 2
  },
  {
    "code": "BTON",
    "name": "BROOKTON",
    "state": "WA",
    "lat_dms": "322200S",
    "lon_dms": "1170100E",
    "latitude": -32.3666667,
    "longitude": 117.0166667,
    "source_page": 2
  },
  {
    "code": "BRI",
    "name": "BROUGHTON ISLAND",
    "state": "NSW",
    "lat_dms": "323630S",
    "lon_dms": "1521830E",
    "latitude": -32.6083333,
    "longitude": 152.3083333,
    "source_page": 2
  },
  {
    "code": "BRH",
    "name": "BRUNSWICK HEADS",
    "state": "NSW",
    "lat_dms": "283230S",
    "lon_dms": "1533300E",
    "latitude": -28.5416667,
    "longitude": 153.55,
    "source_page": 2
  },
  {
    "code": "BUCP",
    "name": "BUCHAN PT",
    "state": "QLD",
    "lat_dms": "164410S",
    "lon_dms": "1454004E",
    "latitude": -16.7361111,
    "longitude": 145.6677778,
    "source_page": 2
  },
  {
    "code": "BUCN",
    "name": "BUCHANAN HILLS",
    "state": "NT",
    "lat_dms": "185400S",
    "lon_dms": "1310500E",
    "latitude": -18.9,
    "longitude": 131.0833333,
    "source_page": 2
  },
  {
    "code": "BKD",
    "name": "BUCKLAND",
    "state": "TAS",
    "lat_dms": "423640S",
    "lon_dms": "1474300E",
    "latitude": -42.6111111,
    "longitude": 147.7166667,
    "source_page": 2
  },
  {
    "code": "BPK",
    "name": "BUCKLAND PARK WEATHER RADAR",
    "state": "SA",
    "lat_dms": "343701S",
    "lon_dms": "1382808E",
    "latitude": -34.6169444,
    "longitude": 138.4688889,
    "source_page": 2
  },
  {
    "code": "BDH",
    "name": "BUNDAGEN HEAD",
    "state": "NSW",
    "lat_dms": "302600S",
    "lon_dms": "1530430E",
    "latitude": -30.4333333,
    "longitude": 153.075,
    "source_page": 3
  },
  {
    "code": "BEN",
    "name": "BUNGENDORE",
    "state": "NSW",
    "lat_dms": "351530S",
    "lon_dms": "1492650E",
    "latitude": -35.2583333,
    "longitude": 149.4472222,
    "source_page": 3
  },
  {
    "code": "BUG",
    "name": "BUNGIL BRIDGE",
    "state": "VIC",
    "lat_dms": "360300S",
    "lon_dms": "1472100E",
    "latitude": -36.05,
    "longitude": 147.35,
    "source_page": 3
  },
  {
    "code": "URG",
    "name": "BURBONG",
    "state": "NSW",
    "lat_dms": "352025S",
    "lon_dms": "1491835E",
    "latitude": -35.3402778,
    "longitude": 149.3097222,
    "source_page": 3
  },
  {
    "code": "BLGH",
    "name": "BURLEIGH HEADS",
    "state": "QLD",
    "lat_dms": "280527S",
    "lon_dms": "1532730E",
    "latitude": -28.0908333,
    "longitude": 153.4583333,
    "source_page": 3
  },
  {
    "code": "BUB",
    "name": "BURNS BEACH",
    "state": "WA",
    "lat_dms": "314342S",
    "lon_dms": "1154300E",
    "latitude": -31.7283333,
    "longitude": 115.7166667,
    "source_page": 3
  },
  {
    "code": "BUGA",
    "name": "BURRAGA",
    "state": "NSW",
    "lat_dms": "335300S",
    "lon_dms": "1493400E",
    "latitude": -33.8833333,
    "longitude": 149.5666667,
    "source_page": 3
  },
  {
    "code": "BJK",
    "name": "BURRINJUCK",
    "state": "NSW",
    "lat_dms": "350018S",
    "lon_dms": "1483500E",
    "latitude": -35.005,
    "longitude": 148.5833333,
    "source_page": 3
  },
  {
    "code": "BMK",
    "name": "BURRUMBUTTOCK",
    "state": "NSW",
    "lat_dms": "355000S",
    "lon_dms": "1464800E",
    "latitude": -35.8333333,
    "longitude": 146.8,
    "source_page": 3
  },
  {
    "code": "BYFD",
    "name": "BYFORD",
    "state": "WA",
    "lat_dms": "321300S",
    "lon_dms": "1160200E",
    "latitude": -32.2166667,
    "longitude": 116.0333333,
    "source_page": 3
  },
  {
    "code": "BYNO",
    "name": "BYNOE HARBOUR",
    "state": "NT",
    "lat_dms": "124500S",
    "lon_dms": "1304100E",
    "latitude": -12.75,
    "longitude": 130.6833333,
    "source_page": 3
  },
  {
    "code": "BYRK",
    "name": "BYROCK",
    "state": "NSW",
    "lat_dms": "303900S",
    "lon_dms": "1462400E",
    "latitude": -30.65,
    "longitude": 146.4,
    "source_page": 3
  },
  {
    "code": "BBAY",
    "name": "BYRON BAY",
    "state": "NSW",
    "lat_dms": "283900S",
    "lon_dms": "1533700E",
    "latitude": -28.65,
    "longitude": 153.6166667,
    "source_page": 3
  },
  {
    "code": "CBLT",
    "name": "CABLEWAY TERMINAL",
    "state": "QLD",
    "lat_dms": "165054S",
    "lon_dms": "1454130E",
    "latitude": -16.8483333,
    "longitude": 145.6916667,
    "source_page": 3
  },
  {
    "code": "CABO",
    "name": "CABOOLTURE",
    "state": "QLD",
    "lat_dms": "270515S",
    "lon_dms": "1525700E",
    "latitude": -27.0875,
    "longitude": 152.95,
    "source_page": 3
  },
  {
    "code": "CRDZ",
    "name": "CALOUNDRA DROPZONE",
    "state": "QLD",
    "lat_dms": "264800S",
    "lon_dms": "1530636E",
    "latitude": -26.8,
    "longitude": 153.11,
    "source_page": 3
  },
  {
    "code": "CALT",
    "name": "CALTEX REFINERY",
    "state": "QLD",
    "lat_dms": "272454S",
    "lon_dms": "1530930E",
    "latitude": -27.415,
    "longitude": 153.1583333,
    "source_page": 3
  },
  {
    "code": "CLVT",
    "name": "CALVERT",
    "state": "QLD",
    "lat_dms": "273949S",
    "lon_dms": "1523057E",
    "latitude": -27.6636111,
    "longitude": 152.5158333,
    "source_page": 3
  },
  {
    "code": "CBRA",
    "name": "CAMBRAI",
    "state": "SA",
    "lat_dms": "343930S",
    "lon_dms": "1391648E",
    "latitude": -34.6583333,
    "longitude": 139.28,
    "source_page": 3
  },
  {
    "code": "CPA",
    "name": "CAMPANIA",
    "state": "TAS",
    "lat_dms": "423958S",
    "lon_dms": "1472521E",
    "latitude": -42.6661111,
    "longitude": 147.4225,
    "source_page": 3
  },
  {
    "code": "CLLN",
    "name": "CAMPBELLTOWN",
    "state": "TAS",
    "lat_dms": "415600S",
    "lon_dms": "1472930E",
    "latitude": -41.9333333,
    "longitude": 147.4916667,
    "source_page": 3
  },
  {
    "code": "CAMB",
    "name": "CAMPBELLTOWN UNIVERSITY",
    "state": "NSW",
    "lat_dms": "340418S",
    "lon_dms": "1504700E",
    "latitude": -34.0716667,
    "longitude": 150.7833333,
    "source_page": 3
  },
  {
    "code": "RCSE",
    "name": "CANBERRA RACECOURSE",
    "state": "ACT",
    "lat_dms": "351418S",
    "lon_dms": "1490812E",
    "latitude": -35.2383333,
    "longitude": 149.1366667,
    "source_page": 3
  },
  {
    "code": "CNB",
    "name": "CANNING BRIDGE",
    "state": "WA",
    "lat_dms": "320036S",
    "lon_dms": "1155100E",
    "latitude": -32.01,
    "longitude": 115.85,
    "source_page": 3
  },
  {
    "code": "CDM",
    "name": "CANNING DAM",
    "state": "WA",
    "lat_dms": "320915S",
    "lon_dms": "1160730E",
    "latitude": -32.1541667,
    "longitude": 116.125,
    "source_page": 3
  },
  {
    "code": "CAV",
    "name": "CANNONVALE",
    "state": "QLD",
    "lat_dms": "201640S",
    "lon_dms": "1484130E",
    "latitude": -20.2777778,
    "longitude": 148.6916667,
    "source_page": 3
  },
  {
    "code": "CBY",
    "name": "CANTERBURY RACECOURSE",
    "state": "NSW",
    "lat_dms": "335430S",
    "lon_dms": "1510642E",
    "latitude": -33.9083333,
    "longitude": 151.1116667,
    "source_page": 3
  },
  {
    "code": "CAPS",
    "name": "CAPE BANKS",
    "state": "NSW",
    "lat_dms": "335951S",
    "lon_dms": "1511440E",
    "latitude": -33.9975,
    "longitude": 151.2444444,
    "source_page": 3
  },
  {
    "code": "CCL",
    "name": "CAPE CLEVELAND",
    "state": "QLD",
    "lat_dms": "191100S",
    "lon_dms": "1470045E",
    "latitude": -19.1833333,
    "longitude": 147.0125,
    "source_page": 3
  },
  {
    "code": "CPY",
    "name": "CAPE CONWAY",
    "state": "QLD",
    "lat_dms": "203210S",
    "lon_dms": "1485540E",
    "latitude": -20.5361111,
    "longitude": 148.9277778,
    "source_page": 3
  },
  {
    "code": "CGR",
    "name": "CAPE GAMBIER",
    "state": "NT",
    "lat_dms": "115620S",
    "lon_dms": "1305800E",
    "latitude": -11.9388889,
    "longitude": 130.9666667,
    "source_page": 3
  },
  {
    "code": "CGF",
    "name": "CAPE GRAFTON",
    "state": "QLD",
    "lat_dms": "165150S",
    "lon_dms": "1455500E",
    "latitude": -16.8638889,
    "longitude": 145.9166667,
    "source_page": 3
  },
  {
    "code": "CPH",
    "name": "CAPE HILLSBOROUGH",
    "state": "QLD",
    "lat_dms": "205420S",
    "lon_dms": "1490240E",
    "latitude": -20.9055556,
    "longitude": 149.0444444,
    "source_page": 3
  },
  {
    "code": "CAJE",
    "name": "CAPE JERVIS",
    "state": "SA",
    "lat_dms": "353622S",
    "lon_dms": "1380531E",
    "latitude": -35.6061111,
    "longitude": 138.0919444,
    "source_page": 3
  },
  {
    "code": "CAKE",
    "name": "CAPE KEITH",
    "state": "NT",
    "lat_dms": "113700S",
    "lon_dms": "1312800E",
    "latitude": -11.6166667,
    "longitude": 131.4666667,
    "source_page": 3
  },
  {
    "code": "CMB",
    "name": "CAPE LAMBERT",
    "state": "WA",
    "lat_dms": "203536S",
    "lon_dms": "1171100E",
    "latitude": -20.5933333,
    "longitude": 117.1833333,
    "source_page": 3
  },
  {
    "code": "CPMN",
    "name": "CAPE MORETON",
    "state": "QLD",
    "lat_dms": "270200S",
    "lon_dms": "1532800E",
    "latitude": -27.0333333,
    "longitude": 153.4666667,
    "source_page": 3
  },
  {
    "code": "CPLD",
    "name": "CAPE PORTLAND",
    "state": "TAS",
    "lat_dms": "404500S",
    "lon_dms": "1475700E",
    "latitude": -40.75,
    "longitude": 147.95,
    "source_page": 3
  },
  {
    "code": "CPHE",
    "name": "CAPE RICHE",
    "state": "WA",
    "lat_dms": "343600S",
    "lon_dms": "1184600E",
    "latitude": -34.6,
    "longitude": 118.7666667,
    "source_page": 3
  },
  {
    "code": "CAPT",
    "name": "CAPTAINS FLAT",
    "state": "NSW",
    "lat_dms": "353528S",
    "lon_dms": "1492643E",
    "latitude": -35.5911111,
    "longitude": 149.4452778,
    "source_page": 3
  },
  {
    "code": "CAU",
    "name": "CARAMUT",
    "state": "VIC",
    "lat_dms": "375800S",
    "lon_dms": "1423100E",
    "latitude": -37.9666667,
    "longitude": 142.5166667,
    "source_page": 3
  },
  {
    "code": "CARE",
    "name": "CARDINIA RESV",
    "state": "VIC",
    "lat_dms": "375730S",
    "lon_dms": "1452500E",
    "latitude": -37.9583333,
    "longitude": 145.4166667,
    "source_page": 3
  },
  {
    "code": "CDNA",
    "name": "CARDONA",
    "state": "QLD",
    "lat_dms": "232000S",
    "lon_dms": "1490000E",
    "latitude": -23.3333333,
    "longitude": 149.0,
    "source_page": 3
  },
  {
    "code": "CARIN",
    "name": "CARINDALE SHOPPING CENTRE",
    "state": "QLD",
    "lat_dms": "273000S",
    "lon_dms": "1530604E",
    "latitude": -27.5,
    "longitude": 153.1011111,
    "source_page": 3
  },
  {
    "code": "CIK",
    "name": "CARRICK",
    "state": "TAS",
    "lat_dms": "413200S",
    "lon_dms": "1470000E",
    "latitude": -41.5333333,
    "longitude": 147.0,
    "source_page": 3
  },
  {
    "code": "CARR",
    "name": "CARRUM",
    "state": "VIC",
    "lat_dms": "380427S",
    "lon_dms": "1450710E",
    "latitude": -38.0741667,
    "longitude": 145.1194444,
    "source_page": 3
  },
  {
    "code": "CLJ",
    "name": "CASTLE JUNCTION",
    "state": "TAS",
    "lat_dms": "413020S",
    "lon_dms": "1472900E",
    "latitude": -41.5055556,
    "longitude": 147.4833333,
    "source_page": 3
  },
  {
    "code": "CTT",
    "name": "CASTLE PT",
    "state": "NT",
    "lat_dms": "122100S",
    "lon_dms": "1311630E",
    "latitude": -12.35,
    "longitude": 131.275,
    "source_page": 3
  },
  {
    "code": "CRPT",
    "name": "CASTLEREAGH POINT",
    "state": "QLD",
    "lat_dms": "271132S",
    "lon_dms": "1530641E",
    "latitude": -27.1922222,
    "longitude": 153.1113889,
    "source_page": 3
  },
  {
    "code": "CCP",
    "name": "CECIL PLAINS",
    "state": "QLD",
    "lat_dms": "273200S",
    "lon_dms": "1511100E",
    "latitude": -27.5333333,
    "longitude": 151.1833333,
    "source_page": 3
  },
  {
    "code": "CAO",
    "name": "CEDUNA OBSERVATORY",
    "state": "SA",
    "lat_dms": "315200S",
    "lon_dms": "1334800E",
    "latitude": -31.8666667,
    "longitude": 133.8,
    "source_page": 3
  },
  {
    "code": "CBRG",
    "name": "CENTENARY BRIDGE",
    "state": "QLD",
    "lat_dms": "273139S",
    "lon_dms": "1525648E",
    "latitude": -27.5275,
    "longitude": 152.9466667,
    "source_page": 3
  },
  {
    "code": "CERB",
    "name": "CERBERUS",
    "state": "VIC",
    "lat_dms": "375800S",
    "lon_dms": "1450000E",
    "latitude": -37.9666667,
    "longitude": 145.0,
    "source_page": 3
  },
  {
    "code": "CYM",
    "name": "CHAFFEY DAM",
    "state": "NSW",
    "lat_dms": "312030S",
    "lon_dms": "1510800E",
    "latitude": -31.3416667,
    "longitude": 151.1333333,
    "source_page": 3
  },
  {
    "code": "CHI",
    "name": "CHANNEL ISLAND",
    "state": "NT",
    "lat_dms": "123300S",
    "lon_dms": "1305200E",
    "latitude": -12.55,
    "longitude": 130.8666667,
    "source_page": 3
  },
  {
    "code": "CHAP",
    "name": "CHARLES PT",
    "state": "NT",
    "lat_dms": "122258S",
    "lon_dms": "1303705E",
    "latitude": -12.3827778,
    "longitude": 130.6180556,
    "source_page": 3
  },
  {
    "code": "CHAT",
    "name": "CHATSWOOD CBD",
    "state": "NSW",
    "lat_dms": "334746S",
    "lon_dms": "1511107E",
    "latitude": -33.7961111,
    "longitude": 151.1852778,
    "source_page": 4
  },
  {
    "code": "CHN",
    "name": "CHILTERN",
    "state": "VIC",
    "lat_dms": "360845S",
    "lon_dms": "1463625E",
    "latitude": -36.1458333,
    "longitude": 146.6069444,
    "source_page": 4
  },
  {
    "code": "CIB",
    "name": "CHIPBOARD FACTORY",
    "state": "NSW",
    "lat_dms": "350415S",
    "lon_dms": "1472415E",
    "latitude": -35.0708333,
    "longitude": 147.4041667,
    "source_page": 4
  },
  {
    "code": "CHOC",
    "name": "CHOCOLATE FACTORY",
    "state": "TAS",
    "lat_dms": "424735S",
    "lon_dms": "1471604E",
    "latitude": -42.7930556,
    "longitude": 147.2677778,
    "source_page": 4
  },
  {
    "code": "CNTH",
    "name": "CHOPPERS NORTH",
    "state": "NSW",
    "lat_dms": "335254S",
    "lon_dms": "1510130E",
    "latitude": -33.8816667,
    "longitude": 151.025,
    "source_page": 4
  },
  {
    "code": "CSTH",
    "name": "CHOPPERS SOUTH",
    "state": "NSW",
    "lat_dms": "335715S",
    "lon_dms": "1505752E",
    "latitude": -33.9541667,
    "longitude": 150.9644444,
    "source_page": 4
  },
  {
    "code": "CWST",
    "name": "CHOPPERS WEST",
    "state": "NSW",
    "lat_dms": "335225S",
    "lon_dms": "1510014E",
    "latitude": -33.8736111,
    "longitude": 151.0038889,
    "source_page": 4
  },
  {
    "code": "CIH",
    "name": "CID HARBOUR",
    "state": "QLD",
    "lat_dms": "201500S",
    "lon_dms": "1485600E",
    "latitude": -20.25,
    "longitude": 148.9333333,
    "source_page": 4
  },
  {
    "code": "CYB",
    "name": "CITY BEACH",
    "state": "WA",
    "lat_dms": "315630S",
    "lon_dms": "1154500E",
    "latitude": -31.9416667,
    "longitude": 115.75,
    "source_page": 4
  },
  {
    "code": "CEN",
    "name": "CLEVEDON",
    "state": "QLD",
    "lat_dms": "192345S",
    "lon_dms": "1470115E",
    "latitude": -19.3958333,
    "longitude": 147.0208333,
    "source_page": 4
  },
  {
    "code": "CVD",
    "name": "CLEVELAND",
    "state": "QLD",
    "lat_dms": "273110S",
    "lon_dms": "1531700E",
    "latitude": -27.5194444,
    "longitude": 153.2833333,
    "source_page": 4
  },
  {
    "code": "CFI",
    "name": "CLIFFY ISLAND",
    "state": "VIC",
    "lat_dms": "385705S",
    "lon_dms": "1464208E",
    "latitude": -38.9513889,
    "longitude": 146.7022222,
    "source_page": 4
  },
  {
    "code": "CLS",
    "name": "CLIFTON SPRINGS",
    "state": "VIC",
    "lat_dms": "380900S",
    "lon_dms": "1443400E",
    "latitude": -38.15,
    "longitude": 144.5666667,
    "source_page": 4
  },
  {
    "code": "CGH",
    "name": "CLONAGH STN",
    "state": "QLD",
    "lat_dms": "200800S",
    "lon_dms": "1404100E",
    "latitude": -20.1333333,
    "longitude": 140.6833333,
    "source_page": 4
  },
  {
    "code": "CLOY",
    "name": "CLONEYS CREEK",
    "state": "QLD",
    "lat_dms": "201300S",
    "lon_dms": "1423600E",
    "latitude": -20.2166667,
    "longitude": 142.6,
    "source_page": 4
  },
  {
    "code": "COBA",
    "name": "COBAKI",
    "state": "NSW",
    "lat_dms": "281100S",
    "lon_dms": "1532916E",
    "latitude": -28.1833333,
    "longitude": 153.4877778,
    "source_page": 4
  },
  {
    "code": "CKT",
    "name": "COCKATOO",
    "state": "VIC",
    "lat_dms": "375618S",
    "lon_dms": "1452942E",
    "latitude": -37.9383333,
    "longitude": 145.495,
    "source_page": 4
  },
  {
    "code": "CBI",
    "name": "COLBINABBIN",
    "state": "VIC",
    "lat_dms": "363500S",
    "lon_dms": "1444800E",
    "latitude": -36.5833333,
    "longitude": 144.8,
    "source_page": 4
  },
  {
    "code": "CGE",
    "name": "COLLINGULLIE",
    "state": "NSW",
    "lat_dms": "350520S",
    "lon_dms": "1470715E",
    "latitude": -35.0888889,
    "longitude": 147.1208333,
    "source_page": 4
  },
  {
    "code": "CONG",
    "name": "COMERONG ISLAND",
    "state": "NSW",
    "lat_dms": "345300S",
    "lon_dms": "1504400E",
    "latitude": -34.8833333,
    "longitude": 150.7333333,
    "source_page": 4
  },
  {
    "code": "CJN",
    "name": "CONARA JUNCTION",
    "state": "TAS",
    "lat_dms": "415000S",
    "lon_dms": "1472600E",
    "latitude": -41.8333333,
    "longitude": 147.4333333,
    "source_page": 4
  },
  {
    "code": "CGM",
    "name": "CONDONG MILL",
    "state": "NSW",
    "lat_dms": "281900S",
    "lon_dms": "1532600E",
    "latitude": -28.3166667,
    "longitude": 153.4333333,
    "source_page": 4
  },
  {
    "code": "CBYC",
    "name": "COOBY CREEK RESV",
    "state": "QLD",
    "lat_dms": "272310S",
    "lon_dms": "1515620E",
    "latitude": -27.3861111,
    "longitude": 151.9388889,
    "source_page": 4
  },
  {
    "code": "CIS",
    "name": "COOK ISLAND",
    "state": "NSW",
    "lat_dms": "281150S",
    "lon_dms": "1533440E",
    "latitude": -28.1972222,
    "longitude": 153.5777778,
    "source_page": 4
  },
  {
    "code": "CLMN",
    "name": "COOLAMON",
    "state": "NSW",
    "lat_dms": "344900S",
    "lon_dms": "1471200E",
    "latitude": -34.8166667,
    "longitude": 147.2,
    "source_page": 4
  },
  {
    "code": "CMDR",
    "name": "COOLMUNDA RESV",
    "state": "QLD",
    "lat_dms": "282700S",
    "lon_dms": "1511400E",
    "latitude": -28.45,
    "longitude": 151.2333333,
    "source_page": 4
  },
  {
    "code": "COOL",
    "name": "COOLUM HI-RISE",
    "state": "QLD",
    "lat_dms": "263140S",
    "lon_dms": "1530514E",
    "latitude": -26.5277778,
    "longitude": 153.0872222,
    "source_page": 4
  },
  {
    "code": "CORO",
    "name": "COOROY",
    "state": "QLD",
    "lat_dms": "262500S",
    "lon_dms": "1525430E",
    "latitude": -26.4166667,
    "longitude": 152.9083333,
    "source_page": 4
  },
  {
    "code": "CPL",
    "name": "COPPERLODE DAM",
    "state": "QLD",
    "lat_dms": "165910S",
    "lon_dms": "1454015E",
    "latitude": -16.9861111,
    "longitude": 145.6708333,
    "source_page": 4
  },
  {
    "code": "CPNG",
    "name": "COPPINS CROSSING",
    "state": "ACT",
    "lat_dms": "351718S",
    "lon_dms": "1490236E",
    "latitude": -35.2883333,
    "longitude": 149.0433333,
    "source_page": 4
  },
  {
    "code": "CVR",
    "name": "CORIN RESV",
    "state": "ACT",
    "lat_dms": "353230S",
    "lon_dms": "1485000E",
    "latitude": -35.5416667,
    "longitude": 148.8333333,
    "source_page": 4
  },
  {
    "code": "COSS",
    "name": "COSSACK",
    "state": "WA",
    "lat_dms": "204036S",
    "lon_dms": "1171124E",
    "latitude": -20.6766667,
    "longitude": 117.19,
    "source_page": 4
  },
  {
    "code": "COTR",
    "name": "COTTER",
    "state": "ACT",
    "lat_dms": "352017S",
    "lon_dms": "1485930E",
    "latitude": -35.3380556,
    "longitude": 148.9916667,
    "source_page": 4
  },
  {
    "code": "CTE",
    "name": "COTTESLOE",
    "state": "WA",
    "lat_dms": "315930S",
    "lon_dms": "1154500E",
    "latitude": -31.9916667,
    "longitude": 115.75,
    "source_page": 4
  },
  {
    "code": "COWI",
    "name": "COW ISLAND",
    "state": "QLD",
    "lat_dms": "202522S",
    "lon_dms": "1485041E",
    "latitude": -20.4227778,
    "longitude": 148.8447222,
    "source_page": 4
  },
  {
    "code": "COWR",
    "name": "COWWARR",
    "state": "VIC",
    "lat_dms": "380052S",
    "lon_dms": "1464135E",
    "latitude": -38.0144444,
    "longitude": 146.6930556,
    "source_page": 4
  },
  {
    "code": "CML",
    "name": "CRADLE MOUNTAIN LODGE",
    "state": "TAS",
    "lat_dms": "413542S",
    "lon_dms": "1455542E",
    "latitude": -41.595,
    "longitude": 145.9283333,
    "source_page": 4
  },
  {
    "code": "CBV",
    "name": "CRAIGBOURNE RESV",
    "state": "TAS",
    "lat_dms": "423300S",
    "lon_dms": "1472500E",
    "latitude": -42.55,
    "longitude": 147.4166667,
    "source_page": 4
  },
  {
    "code": "CGB",
    "name": "CRAIGIEBURN OVERPASS",
    "state": "VIC",
    "lat_dms": "373610S",
    "lon_dms": "1445620E",
    "latitude": -37.6027778,
    "longitude": 144.9388889,
    "source_page": 4
  },
  {
    "code": "CRAY",
    "name": "CRAYFISH",
    "state": "SA",
    "lat_dms": "383500S",
    "lon_dms": "1394500E",
    "latitude": -38.5833333,
    "longitude": 139.75,
    "source_page": 4
  },
  {
    "code": "CREM",
    "name": "CREMORNE",
    "state": "TAS",
    "lat_dms": "425730S",
    "lon_dms": "1473200E",
    "latitude": -42.9583333,
    "longitude": 147.5333333,
    "source_page": 4
  },
  {
    "code": "CES",
    "name": "CRESSY",
    "state": "TAS",
    "lat_dms": "414130S",
    "lon_dms": "1470500E",
    "latitude": -41.6916667,
    "longitude": 147.0833333,
    "source_page": 4
  },
  {
    "code": "CWK",
    "name": "CRESWICK",
    "state": "VIC",
    "lat_dms": "372600S",
    "lon_dms": "1435400E",
    "latitude": -37.4333333,
    "longitude": 143.9,
    "source_page": 4
  },
  {
    "code": "CUL",
    "name": "CRONULLA",
    "state": "NSW",
    "lat_dms": "340342S",
    "lon_dms": "1510912E",
    "latitude": -34.0616667,
    "longitude": 151.1533333,
    "source_page": 4
  },
  {
    "code": "CRPC",
    "name": "CROPPA CREEK",
    "state": "NSW",
    "lat_dms": "290800S",
    "lon_dms": "1501800E",
    "latitude": -29.1333333,
    "longitude": 150.3,
    "source_page": 4
  },
  {
    "code": "CNT",
    "name": "CROWS NEST",
    "state": "QLD",
    "lat_dms": "271610S",
    "lon_dms": "1520320E",
    "latitude": -27.2694444,
    "longitude": 152.0555556,
    "source_page": 4
  },
  {
    "code": "CGD",
    "name": "CUDGEN HEADLAND",
    "state": "NSW",
    "lat_dms": "281554S",
    "lon_dms": "1533506E",
    "latitude": -28.265,
    "longitude": 153.585,
    "source_page": 4
  },
  {
    "code": "CCN",
    "name": "CULCAIRN",
    "state": "NSW",
    "lat_dms": "354000S",
    "lon_dms": "1470220E",
    "latitude": -35.6666667,
    "longitude": 147.0388889,
    "source_page": 4
  },
  {
    "code": "DAIN",
    "name": "DAINTREE",
    "state": "QLD",
    "lat_dms": "161500S",
    "lon_dms": "1451900E",
    "latitude": -16.25,
    "longitude": 145.3166667,
    "source_page": 4
  },
  {
    "code": "DLMO",
    "name": "DALMORE DOWNS",
    "state": "NT",
    "lat_dms": "194630S",
    "lon_dms": "1360006E",
    "latitude": -19.775,
    "longitude": 136.0016667,
    "source_page": 4
  },
  {
    "code": "DRY",
    "name": "DALRYE",
    "state": "QLD",
    "lat_dms": "201000S",
    "lon_dms": "1490400E",
    "latitude": -20.1666667,
    "longitude": 149.0666667,
    "source_page": 4
  },
  {
    "code": "DMW",
    "name": "DAM WALL",
    "state": "SA",
    "lat_dms": "344530S",
    "lon_dms": "1384315E",
    "latitude": -34.7583333,
    "longitude": 138.7208333,
    "source_page": 4
  },
  {
    "code": "DARL",
    "name": "DARLIMURA",
    "state": "VIC",
    "lat_dms": "382114S",
    "lon_dms": "1461255E",
    "latitude": -38.3538889,
    "longitude": 146.2152778,
    "source_page": 4
  },
  {
    "code": "DHH",
    "name": "DARLING HARBOUR",
    "state": "NSW",
    "lat_dms": "335130S",
    "lon_dms": "1511200E",
    "latitude": -33.8583333,
    "longitude": 151.2,
    "source_page": 4
  },
  {
    "code": "DND",
    "name": "DARWIN RIVER DAM",
    "state": "NT",
    "lat_dms": "124930S",
    "lon_dms": "1305800E",
    "latitude": -12.825,
    "longitude": 130.9666667,
    "source_page": 4
  },
  {
    "code": "DBO",
    "name": "DAYBORO",
    "state": "QLD",
    "lat_dms": "271200S",
    "lon_dms": "1524915E",
    "latitude": -27.2,
    "longitude": 152.8208333,
    "source_page": 4
  },
  {
    "code": "DFD",
    "name": "DAYLESFORD",
    "state": "VIC",
    "lat_dms": "372100S",
    "lon_dms": "1440900E",
    "latitude": -37.35,
    "longitude": 144.15,
    "source_page": 4
  },
  {
    "code": "DGY",
    "name": "DE GREY HS",
    "state": "WA",
    "lat_dms": "201030S",
    "lon_dms": "1191010E",
    "latitude": -20.175,
    "longitude": 119.1694444,
    "source_page": 4
  },
  {
    "code": "DSS",
    "name": "DEDERANG SUBSTATION",
    "state": "VIC",
    "lat_dms": "362712S",
    "lon_dms": "1465924E",
    "latitude": -36.4533333,
    "longitude": 146.99,
    "source_page": 5
  },
  {
    "code": "DPW",
    "name": "DEEP WELL",
    "state": "NT",
    "lat_dms": "242130S",
    "lon_dms": "1340300E",
    "latitude": -24.3583333,
    "longitude": 134.05,
    "source_page": 5
  },
  {
    "code": "DEL",
    "name": "DELORAINE",
    "state": "TAS",
    "lat_dms": "413200S",
    "lon_dms": "1464000E",
    "latitude": -41.5333333,
    "longitude": 146.6666667,
    "source_page": 5
  },
  {
    "code": "DNP",
    "name": "DENHAM PASSAGE",
    "state": "QLD",
    "lat_dms": "112000S",
    "lon_dms": "1432000E",
    "latitude": -11.3333333,
    "longitude": 143.3333333,
    "source_page": 5
  },
  {
    "code": "DWB",
    "name": "DERWENT BRIDGE",
    "state": "TAS",
    "lat_dms": "420800S",
    "lon_dms": "1461400E",
    "latitude": -42.1333333,
    "longitude": 146.2333333,
    "source_page": 5
  },
  {
    "code": "DVM",
    "name": "DEVILS MARBLES",
    "state": "NT",
    "lat_dms": "203200S",
    "lon_dms": "1341500E",
    "latitude": -20.5333333,
    "longitude": 134.25,
    "source_page": 5
  },
  {
    "code": "DIBE",
    "name": "DICKY BEACH",
    "state": "QLD",
    "lat_dms": "264655S",
    "lon_dms": "1530820E",
    "latitude": -26.7819444,
    "longitude": 153.1388889,
    "source_page": 5
  },
  {
    "code": "DODI",
    "name": "DODDS ISLAND",
    "state": "NSW",
    "lat_dms": "281453S",
    "lon_dms": "1533201E",
    "latitude": -28.2480556,
    "longitude": 153.5336111,
    "source_page": 5
  },
  {
    "code": "DLPT",
    "name": "DOLLS POINT",
    "state": "NSW",
    "lat_dms": "335941S",
    "lon_dms": "1510853E",
    "latitude": -33.9947222,
    "longitude": 151.1480556,
    "source_page": 5
  },
  {
    "code": "DSN",
    "name": "DONCASTER SHOPPINGTOWN",
    "state": "VIC",
    "lat_dms": "374700S",
    "lon_dms": "1450730E",
    "latitude": -37.7833333,
    "longitude": 145.125,
    "source_page": 5
  },
  {
    "code": "DOP",
    "name": "DONNINGTON AIRPARK",
    "state": "QLD",
    "lat_dms": "193606S",
    "lon_dms": "1465030E",
    "latitude": -19.6016667,
    "longitude": 146.8416667,
    "source_page": 5
  },
  {
    "code": "DOOM",
    "name": "DOOMBEN RACECOURSE",
    "state": "QLD",
    "lat_dms": "272536S",
    "lon_dms": "1530412E",
    "latitude": -27.4266667,
    "longitude": 153.07,
    "source_page": 5
  },
  {
    "code": "DRO",
    "name": "DORRIGO",
    "state": "NSW",
    "lat_dms": "302030S",
    "lon_dms": "1524245E",
    "latitude": -30.3416667,
    "longitude": 152.7125,
    "source_page": 5
  },
  {
    "code": "DCIS",
    "name": "DOUBLE CONE ISLAND",
    "state": "QLD",
    "lat_dms": "200600S",
    "lon_dms": "1484300E",
    "latitude": -20.1,
    "longitude": 148.7166667,
    "source_page": 5
  },
  {
    "code": "DOU",
    "name": "DOUBLE ISLAND",
    "state": "QLD",
    "lat_dms": "164330S",
    "lon_dms": "1454100E",
    "latitude": -16.725,
    "longitude": 145.6833333,
    "source_page": 5
  },
  {
    "code": "DLP",
    "name": "DOUBLE ISLAND PT",
    "state": "QLD",
    "lat_dms": "255500S",
    "lon_dms": "1531100E",
    "latitude": -25.9166667,
    "longitude": 153.1833333,
    "source_page": 5
  },
  {
    "code": "DBPT",
    "name": "DOUBLE PT",
    "state": "QLD",
    "lat_dms": "115200S",
    "lon_dms": "1425400E",
    "latitude": -11.8666667,
    "longitude": 142.9,
    "source_page": 5
  },
  {
    "code": "DRLD",
    "name": "DREAMWORLD",
    "state": "QLD",
    "lat_dms": "275154S",
    "lon_dms": "1531900E",
    "latitude": -27.865,
    "longitude": 153.3166667,
    "source_page": 5
  },
  {
    "code": "DRM",
    "name": "DROMANA",
    "state": "VIC",
    "lat_dms": "382000S",
    "lon_dms": "1445800E",
    "latitude": -38.3333333,
    "longitude": 144.9666667,
    "source_page": 5
  },
  {
    "code": "DRP",
    "name": "DROUGHTY PT",
    "state": "TAS",
    "lat_dms": "425600S",
    "lon_dms": "1472500E",
    "latitude": -42.9333333,
    "longitude": 147.4166667,
    "source_page": 5
  },
  {
    "code": "DRN",
    "name": "DROUIN",
    "state": "VIC",
    "lat_dms": "380800S",
    "lon_dms": "1455100E",
    "latitude": -38.1333333,
    "longitude": 145.85,
    "source_page": 5
  },
  {
    "code": "DCRK",
    "name": "DRY CREEK",
    "state": "SA",
    "lat_dms": "345000S",
    "lon_dms": "1383500E",
    "latitude": -34.8333333,
    "longitude": 138.5833333,
    "source_page": 5
  },
  {
    "code": "DAG",
    "name": "DUARINGA",
    "state": "QLD",
    "lat_dms": "234314S",
    "lon_dms": "1494008E",
    "latitude": -23.7205556,
    "longitude": 149.6688889,
    "source_page": 5
  },
  {
    "code": "DUB",
    "name": "DUBLIN",
    "state": "SA",
    "lat_dms": "342715S",
    "lon_dms": "1382100E",
    "latitude": -34.4541667,
    "longitude": 138.35,
    "source_page": 5
  },
  {
    "code": "DLY",
    "name": "DUNALLEY",
    "state": "TAS",
    "lat_dms": "425330S",
    "lon_dms": "1474815E",
    "latitude": -42.8916667,
    "longitude": 147.8041667,
    "source_page": 5
  },
  {
    "code": "DGN",
    "name": "DUNGOWAN",
    "state": "NSW",
    "lat_dms": "311300S",
    "lon_dms": "1510700E",
    "latitude": -31.2166667,
    "longitude": 151.1166667,
    "source_page": 5
  },
  {
    "code": "DUWN",
    "name": "DUNGOWAN DAM",
    "state": "NSW",
    "lat_dms": "312400S",
    "lon_dms": "1512100E",
    "latitude": -31.4,
    "longitude": 151.35,
    "source_page": 5
  },
  {
    "code": "DUA",
    "name": "DURI GAP",
    "state": "NSW",
    "lat_dms": "311200S",
    "lon_dms": "1504200E",
    "latitude": -31.2,
    "longitude": 150.7,
    "source_page": 5
  },
  {
    "code": "DMT",
    "name": "DURI MT",
    "state": "NSW",
    "lat_dms": "311215S",
    "lon_dms": "1504350E",
    "latitude": -31.2041667,
    "longitude": 150.7305556,
    "source_page": 5
  },
  {
    "code": "DONG",
    "name": "DURONG",
    "state": "QLD",
    "lat_dms": "262400S",
    "lon_dms": "1511500E",
    "latitude": -26.4,
    "longitude": 151.25,
    "source_page": 5
  },
  {
    "code": "DTON",
    "name": "DUTTON",
    "state": "SA",
    "lat_dms": "342200S",
    "lon_dms": "1390800E",
    "latitude": -34.3666667,
    "longitude": 139.1333333,
    "source_page": 5
  },
  {
    "code": "EAN",
    "name": "EAGLE HAWK NECK",
    "state": "TAS",
    "lat_dms": "430100S",
    "lon_dms": "1475400E",
    "latitude": -43.0166667,
    "longitude": 147.9,
    "source_page": 5
  },
  {
    "code": "EARH",
    "name": "EARL HILL",
    "state": "QLD",
    "lat_dms": "164800S",
    "lon_dms": "1454200E",
    "latitude": -16.8,
    "longitude": 145.7,
    "source_page": 5
  },
  {
    "code": "EARV",
    "name": "EARLVILLE",
    "state": "QLD",
    "lat_dms": "165718S",
    "lon_dms": "1454418E",
    "latitude": -16.955,
    "longitude": 145.7383333,
    "source_page": 5
  },
  {
    "code": "EAM",
    "name": "EAST ARM",
    "state": "NT",
    "lat_dms": "123100S",
    "lon_dms": "1305600E",
    "latitude": -12.5166667,
    "longitude": 130.9333333,
    "source_page": 5
  },
  {
    "code": "EGT",
    "name": "EAST GRETA",
    "state": "NSW",
    "lat_dms": "324415S",
    "lon_dms": "1513215E",
    "latitude": -32.7375,
    "longitude": 151.5375,
    "source_page": 5
  },
  {
    "code": "ETP",
    "name": "EAST PT",
    "state": "NT",
    "lat_dms": "122430S",
    "lon_dms": "1304900E",
    "latitude": -12.4083333,
    "longitude": 130.8166667,
    "source_page": 5
  },
  {
    "code": "EDP",
    "name": "EDDYSTONE PT",
    "state": "TAS",
    "lat_dms": "405954S",
    "lon_dms": "1482054E",
    "latitude": -40.9983333,
    "longitude": 148.3483333,
    "source_page": 5
  },
  {
    "code": "EDT",
    "name": "EDMONTON",
    "state": "QLD",
    "lat_dms": "170130S",
    "lon_dms": "1454350E",
    "latitude": -17.025,
    "longitude": 145.7305556,
    "source_page": 5
  },
  {
    "code": "ELDO",
    "name": "ELDORADO",
    "state": "VIC",
    "lat_dms": "361840S",
    "lon_dms": "1463115E",
    "latitude": -36.3111111,
    "longitude": 146.5208333,
    "source_page": 5
  },
  {
    "code": "ERB",
    "name": "ELIZABETH RIVER BRIDGE",
    "state": "NT",
    "lat_dms": "123235S",
    "lon_dms": "1305830E",
    "latitude": -12.5430556,
    "longitude": 130.975,
    "source_page": 5
  },
  {
    "code": "EMY",
    "name": "EMILY GAP",
    "state": "NT",
    "lat_dms": "234422S",
    "lon_dms": "1335633E",
    "latitude": -23.7394444,
    "longitude": 133.9425,
    "source_page": 5
  },
  {
    "code": "EDOR",
    "name": "ENDEAVOUR REEF",
    "state": "QLD",
    "lat_dms": "154700S",
    "lon_dms": "1453400E",
    "latitude": -15.7833333,
    "longitude": 145.5666667,
    "source_page": 5
  },
  {
    "code": "EPPG",
    "name": "EPPING",
    "state": "VIC",
    "lat_dms": "373835S",
    "lon_dms": "1450130E",
    "latitude": -37.6430556,
    "longitude": 145.025,
    "source_page": 5
  },
  {
    "code": "ERSK",
    "name": "ERSKINEVILLE OVAL",
    "state": "NSW",
    "lat_dms": "335408S",
    "lon_dms": "1511126E",
    "latitude": -33.9022222,
    "longitude": 151.1905556,
    "source_page": 5
  },
  {
    "code": "ETTA",
    "name": "ETTAMOGAH PUB",
    "state": "NSW",
    "lat_dms": "355806S",
    "lon_dms": "1470030E",
    "latitude": -35.9683333,
    "longitude": 147.0083333,
    "source_page": 5
  },
  {
    "code": "EMI",
    "name": "EUMUNDI",
    "state": "QLD",
    "lat_dms": "262850S",
    "lon_dms": "1525710E",
    "latitude": -26.4805556,
    "longitude": 152.9527778,
    "source_page": 5
  },
  {
    "code": "EWI",
    "name": "EWANINGA",
    "state": "NT",
    "lat_dms": "235900S",
    "lon_dms": "1335600E",
    "latitude": -23.9833333,
    "longitude": 133.9333333,
    "source_page": 5
  },
  {
    "code": "EMD",
    "name": "EWEN MADDOCK DAM",
    "state": "QLD",
    "lat_dms": "264640S",
    "lon_dms": "1530030E",
    "latitude": -26.7777778,
    "longitude": 153.0083333,
    "source_page": 5
  },
  {
    "code": "FCP",
    "name": "FALSE CAPE",
    "state": "QLD",
    "lat_dms": "165230S",
    "lon_dms": "1455100E",
    "latitude": -16.875,
    "longitude": 145.85,
    "source_page": 5
  },
  {
    "code": "FHS",
    "name": "FARRER HIGH SCHOOL",
    "state": "NSW",
    "lat_dms": "310830S",
    "lon_dms": "1505900E",
    "latitude": -31.1416667,
    "longitude": 150.9833333,
    "source_page": 5
  },
  {
    "code": "FDP",
    "name": "FEDERATION PEAK",
    "state": "TAS",
    "lat_dms": "431600S",
    "lon_dms": "1462700E",
    "latitude": -43.2666667,
    "longitude": 146.45,
    "source_page": 5
  },
  {
    "code": "FNVL",
    "name": "FERNVALE",
    "state": "QLD",
    "lat_dms": "272715S",
    "lon_dms": "1523910E",
    "latitude": -27.4541667,
    "longitude": 152.6527778,
    "source_page": 5
  },
  {
    "code": "FLDI",
    "name": "FIELD ISLAND",
    "state": "NT",
    "lat_dms": "120600S",
    "lon_dms": "1322300E",
    "latitude": -12.1,
    "longitude": 132.3833333,
    "source_page": 5
  },
  {
    "code": "FISH",
    "name": "FISHERMANS ISLAND",
    "state": "QLD",
    "lat_dms": "272312S",
    "lon_dms": "1531036E",
    "latitude": -27.3866667,
    "longitude": 153.1766667,
    "source_page": 5
  },
  {
    "code": "FSHR",
    "name": "FISHERMANS PARADISE",
    "state": "NSW",
    "lat_dms": "351350S",
    "lon_dms": "1502654E",
    "latitude": -35.2305556,
    "longitude": 150.4483333,
    "source_page": 5
  },
  {
    "code": "FIT",
    "name": "FITNESS CAMP",
    "state": "NSW",
    "lat_dms": "351000S",
    "lon_dms": "1473720E",
    "latitude": -35.1666667,
    "longitude": 147.6222222,
    "source_page": 5
  },
  {
    "code": "FID",
    "name": "FITZROY ISLAND",
    "state": "QLD",
    "lat_dms": "165600S",
    "lon_dms": "1455930E",
    "latitude": -16.9333333,
    "longitude": 145.9916667,
    "source_page": 6
  },
  {
    "code": "FGN",
    "name": "FLEMINGTON",
    "state": "VIC",
    "lat_dms": "374735S",
    "lon_dms": "1445440E",
    "latitude": -37.7930556,
    "longitude": 144.9111111,
    "source_page": 6
  },
  {
    "code": "FPK",
    "name": "FLINDERS PEAK",
    "state": "QLD",
    "lat_dms": "274900S",
    "lon_dms": "1524830E",
    "latitude": -27.8166667,
    "longitude": 152.8083333,
    "source_page": 6
  },
  {
    "code": "FMN",
    "name": "FORMARTIN",
    "state": "QLD",
    "lat_dms": "272345S",
    "lon_dms": "1512430E",
    "latitude": -27.3958333,
    "longitude": 151.4083333,
    "source_page": 6
  },
  {
    "code": "FDL",
    "name": "FORRESTDALE LAKE",
    "state": "WA",
    "lat_dms": "320935S",
    "lon_dms": "1155550E",
    "latitude": -32.1597222,
    "longitude": 115.9305556,
    "source_page": 6
  },
  {
    "code": "FFLD",
    "name": "FORRESTFIELD",
    "state": "WA",
    "lat_dms": "315919S",
    "lon_dms": "1160104E",
    "latitude": -31.9886111,
    "longitude": 116.0177778,
    "source_page": 6
  },
  {
    "code": "FOWB",
    "name": "FOWLERS BAY",
    "state": "SA",
    "lat_dms": "315900S",
    "lon_dms": "1322600E",
    "latitude": -31.9833333,
    "longitude": 132.4333333,
    "source_page": 6
  },
  {
    "code": "FRLG",
    "name": "FREELING",
    "state": "SA",
    "lat_dms": "342724S",
    "lon_dms": "1384830E",
    "latitude": -34.4566667,
    "longitude": 138.8083333,
    "source_page": 6
  },
  {
    "code": "FWO",
    "name": "FREEWAY OVERPASS",
    "state": "VIC",
    "lat_dms": "374743S",
    "lon_dms": "1445938E",
    "latitude": -37.7952778,
    "longitude": 144.9938889,
    "source_page": 6
  },
  {
    "code": "FRE",
    "name": "FREMANTLE",
    "state": "WA",
    "lat_dms": "320330S",
    "lon_dms": "1154430E",
    "latitude": -32.0583333,
    "longitude": 115.7416667,
    "source_page": 6
  },
  {
    "code": "FREM",
    "name": "FREMANTLE GOLF COURSE",
    "state": "WA",
    "lat_dms": "320317S",
    "lon_dms": "1154625E",
    "latitude": -32.0547222,
    "longitude": 115.7736111,
    "source_page": 6
  },
  {
    "code": "FRWV",
    "name": "FRESHWATER VALLEY",
    "state": "QLD",
    "lat_dms": "165700S",
    "lon_dms": "1454118E",
    "latitude": -16.95,
    "longitude": 145.6883333,
    "source_page": 6
  },
  {
    "code": "GGN",
    "name": "GALLANGOWAN",
    "state": "QLD",
    "lat_dms": "262558S",
    "lon_dms": "1521945E",
    "latitude": -26.4327778,
    "longitude": 152.3291667,
    "source_page": 6
  },
  {
    "code": "GAE",
    "name": "GALLILEE",
    "state": "QLD",
    "lat_dms": "222300S",
    "lon_dms": "1455900E",
    "latitude": -22.3833333,
    "longitude": 145.9833333,
    "source_page": 6
  },
  {
    "code": "GWTR",
    "name": "GAOL WATER TOWER",
    "state": "NT",
    "lat_dms": "235130S",
    "lon_dms": "1334800E",
    "latitude": -23.8583333,
    "longitude": 133.8,
    "source_page": 6
  },
  {
    "code": "GST",
    "name": "GATE SOUTH",
    "state": "NSW",
    "lat_dms": "311725S",
    "lon_dms": "1504105E",
    "latitude": -31.2902778,
    "longitude": 150.6847222,
    "source_page": 6
  },
  {
    "code": "GWT",
    "name": "GATE WEST",
    "state": "NSW",
    "lat_dms": "310115S",
    "lon_dms": "1503420E",
    "latitude": -31.0208333,
    "longitude": 150.5722222,
    "source_page": 6
  },
  {
    "code": "GWB",
    "name": "GATEWAY BRIDGE",
    "state": "QLD",
    "lat_dms": "272645S",
    "lon_dms": "1530600E",
    "latitude": -27.4458333,
    "longitude": 153.1,
    "source_page": 6
  },
  {
    "code": "GWDM",
    "name": "GAWLER DAM",
    "state": "SA",
    "lat_dms": "343347S",
    "lon_dms": "1384616E",
    "latitude": -34.5630556,
    "longitude": 138.7711111,
    "source_page": 6
  },
  {
    "code": "GEK",
    "name": "GEMBROOK",
    "state": "VIC",
    "lat_dms": "375700S",
    "lon_dms": "1453300E",
    "latitude": -37.95,
    "longitude": 145.55,
    "source_page": 6
  },
  {
    "code": "GRB",
    "name": "GEORGES RIVER BRIDGE",
    "state": "NSW",
    "lat_dms": "340012S",
    "lon_dms": "1510636E",
    "latitude": -34.0033333,
    "longitude": 151.11,
    "source_page": 6
  },
  {
    "code": "GEP",
    "name": "GEPPS CROSS",
    "state": "SA",
    "lat_dms": "345100S",
    "lon_dms": "1383600E",
    "latitude": -34.85,
    "longitude": 138.6,
    "source_page": 6
  },
  {
    "code": "GOY",
    "name": "GEROGERY",
    "state": "NSW",
    "lat_dms": "355020S",
    "lon_dms": "1465930E",
    "latitude": -35.8388889,
    "longitude": 146.9916667,
    "source_page": 6
  },
  {
    "code": "GNR",
    "name": "GIBSON REEF",
    "state": "QLD",
    "lat_dms": "171900S",
    "lon_dms": "1462100E",
    "latitude": -17.3166667,
    "longitude": 146.35,
    "source_page": 6
  },
  {
    "code": "GIM",
    "name": "GILBERLAND MINE",
    "state": "QLD",
    "lat_dms": "191800S",
    "lon_dms": "1433600E",
    "latitude": -19.3,
    "longitude": 143.6,
    "source_page": 6
  },
  {
    "code": "GVB",
    "name": "GLADESVILLE BRIDGE",
    "state": "NSW",
    "lat_dms": "335030S",
    "lon_dms": "1510848E",
    "latitude": -33.8416667,
    "longitude": 151.1466667,
    "source_page": 6
  },
  {
    "code": "GBRY",
    "name": "GLEN BRAY",
    "state": "NSW",
    "lat_dms": "355530S",
    "lon_dms": "1470030E",
    "latitude": -35.925,
    "longitude": 147.0083333,
    "source_page": 6
  },
  {
    "code": "GBR",
    "name": "GLENBURN",
    "state": "VIC",
    "lat_dms": "372530S",
    "lon_dms": "1452520E",
    "latitude": -37.425,
    "longitude": 145.4222222,
    "source_page": 6
  },
  {
    "code": "GLEN",
    "name": "GLENLOCH INTERCHANGE",
    "state": "NSW",
    "lat_dms": "351704S",
    "lon_dms": "1490506E",
    "latitude": -35.2844444,
    "longitude": 149.085,
    "source_page": 6
  },
  {
    "code": "GMN",
    "name": "GLENMORGAN",
    "state": "QLD",
    "lat_dms": "271500S",
    "lon_dms": "1494100E",
    "latitude": -27.25,
    "longitude": 149.6833333,
    "source_page": 6
  },
  {
    "code": "GLC",
    "name": "GLENORCHY",
    "state": "SA",
    "lat_dms": "315500S",
    "lon_dms": "1394700E",
    "latitude": -31.9166667,
    "longitude": 139.7833333,
    "source_page": 6
  },
  {
    "code": "GRE",
    "name": "GLENREAGH",
    "state": "NSW",
    "lat_dms": "300315S",
    "lon_dms": "1525840E",
    "latitude": -30.0541667,
    "longitude": 152.9777778,
    "source_page": 6
  },
  {
    "code": "GRK",
    "name": "GLENROCK HS",
    "state": "QLD",
    "lat_dms": "150700S",
    "lon_dms": "1450500E",
    "latitude": -15.1166667,
    "longitude": 145.0833333,
    "source_page": 6
  },
  {
    "code": "GCR",
    "name": "GLOUCESTER",
    "state": "NSW",
    "lat_dms": "320015S",
    "lon_dms": "1515800E",
    "latitude": -32.0041667,
    "longitude": 151.9666667,
    "source_page": 6
  },
  {
    "code": "GOI",
    "name": "GOLDSMITH ISLAND",
    "state": "QLD",
    "lat_dms": "204100S",
    "lon_dms": "1490900E",
    "latitude": -20.6833333,
    "longitude": 149.15,
    "source_page": 6
  },
  {
    "code": "GON",
    "name": "GOODNA",
    "state": "QLD",
    "lat_dms": "273700S",
    "lon_dms": "1525315E",
    "latitude": -27.6166667,
    "longitude": 152.8875,
    "source_page": 6
  },
  {
    "code": "GGV",
    "name": "GOOGONG RESV",
    "state": "NSW",
    "lat_dms": "352515S",
    "lon_dms": "1491540E",
    "latitude": -35.4208333,
    "longitude": 149.2611111,
    "source_page": 6
  },
  {
    "code": "GMBG",
    "name": "GOOMBUNGEE",
    "state": "QLD",
    "lat_dms": "271830S",
    "lon_dms": "1515100E",
    "latitude": -27.3083333,
    "longitude": 151.85,
    "source_page": 6
  },
  {
    "code": "GNN",
    "name": "GOONANEMAN",
    "state": "QLD",
    "lat_dms": "252600S",
    "lon_dms": "1520800E",
    "latitude": -25.4333333,
    "longitude": 152.1333333,
    "source_page": 6
  },
  {
    "code": "GGO",
    "name": "GOONOO GOONOO HS",
    "state": "NSW",
    "lat_dms": "311835S",
    "lon_dms": "1505420E",
    "latitude": -31.3097222,
    "longitude": 150.9055556,
    "source_page": 6
  },
  {
    "code": "GOV",
    "name": "GORDONVALE",
    "state": "QLD",
    "lat_dms": "170520S",
    "lon_dms": "1454700E",
    "latitude": -17.0888889,
    "longitude": 145.7833333,
    "source_page": 6
  },
  {
    "code": "GOW",
    "name": "GOWRIE JUNCTION",
    "state": "QLD",
    "lat_dms": "273000S",
    "lon_dms": "1515310E",
    "latitude": -27.5,
    "longitude": 151.8861111,
    "source_page": 6
  },
  {
    "code": "GRAA",
    "name": "GRANYA",
    "state": "VIC",
    "lat_dms": "360640S",
    "lon_dms": "1471900E",
    "latitude": -36.1111111,
    "longitude": 147.3166667,
    "source_page": 6
  },
  {
    "code": "GVH",
    "name": "GRAVELLY BEACH",
    "state": "TAS",
    "lat_dms": "411715S",
    "lon_dms": "1465820E",
    "latitude": -41.2875,
    "longitude": 146.9722222,
    "source_page": 6
  },
  {
    "code": "GRHL",
    "name": "GREEN HILLS",
    "state": "WA",
    "lat_dms": "315530S",
    "lon_dms": "1165730E",
    "latitude": -31.925,
    "longitude": 116.9583333,
    "source_page": 6
  },
  {
    "code": "GNIS",
    "name": "GREEN ISLAND (CAIRNS)",
    "state": "QLD",
    "lat_dms": "164530S",
    "lon_dms": "1455830E",
    "latitude": -16.7583333,
    "longitude": 145.975,
    "source_page": 6
  },
  {
    "code": "GRL",
    "name": "GREEN ISLAND (MACKAY)",
    "state": "QLD",
    "lat_dms": "205900S",
    "lon_dms": "1490900E",
    "latitude": -20.9833333,
    "longitude": 149.15,
    "source_page": 6
  },
  {
    "code": "GRNH",
    "name": "GREENHILL",
    "state": "QLD",
    "lat_dms": "170224S",
    "lon_dms": "1454818E",
    "latitude": -17.04,
    "longitude": 145.805,
    "source_page": 6
  },
  {
    "code": "GNM",
    "name": "GREENMOUNT",
    "state": "QLD",
    "lat_dms": "274700S",
    "lon_dms": "1515700E",
    "latitude": -27.7833333,
    "longitude": 151.95,
    "source_page": 6
  },
  {
    "code": "GRRV",
    "name": "GROSE RIVER",
    "state": "NSW",
    "lat_dms": "333652S",
    "lon_dms": "1504013E",
    "latitude": -33.6144444,
    "longitude": 150.6702778,
    "source_page": 6
  },
  {
    "code": "GDG",
    "name": "GUNDAGAI",
    "state": "NSW",
    "lat_dms": "350340S",
    "lon_dms": "1480610E",
    "latitude": -35.0611111,
    "longitude": 148.1027778,
    "source_page": 6
  },
  {
    "code": "GUP",
    "name": "GUNN PT",
    "state": "NT",
    "lat_dms": "121100S",
    "lon_dms": "1305930E",
    "latitude": -12.1833333,
    "longitude": 130.9916667,
    "source_page": 6
  },
  {
    "code": "GUNN",
    "name": "GUNNING",
    "state": "NSW",
    "lat_dms": "344654S",
    "lon_dms": "1491600E",
    "latitude": -34.7816667,
    "longitude": 149.2666667,
    "source_page": 6
  },
  {
    "code": "GUNG",
    "name": "GUTHALUNGRA",
    "state": "QLD",
    "lat_dms": "195600S",
    "lon_dms": "1475000E",
    "latitude": -19.9333333,
    "longitude": 147.8333333,
    "source_page": 6
  },
  {
    "code": "HSP",
    "name": "HADSPEN",
    "state": "TAS",
    "lat_dms": "413030S",
    "lon_dms": "1470330E",
    "latitude": -41.5083333,
    "longitude": 147.0583333,
    "source_page": 7
  },
  {
    "code": "HMM",
    "name": "HAMMOND ISLAND",
    "state": "QLD",
    "lat_dms": "103200S",
    "lon_dms": "1421300E",
    "latitude": -10.5333333,
    "longitude": 142.2166667,
    "source_page": 7
  },
  {
    "code": "HMN",
    "name": "HAMPTON",
    "state": "QLD",
    "lat_dms": "272130S",
    "lon_dms": "1520400E",
    "latitude": -27.3583333,
    "longitude": 152.0666667,
    "source_page": 7
  },
  {
    "code": "HAVY",
    "name": "HAPPY VALLEY",
    "state": "QLD",
    "lat_dms": "264828S",
    "lon_dms": "1530759E",
    "latitude": -26.8077778,
    "longitude": 153.1330556,
    "source_page": 7
  },
  {
    "code": "HBB",
    "name": "HARBOUR BRIDGE",
    "state": "NSW",
    "lat_dms": "335112S",
    "lon_dms": "1511230E",
    "latitude": -33.8533333,
    "longitude": 151.2083333,
    "source_page": 7
  },
  {
    "code": "HAF",
    "name": "HAREFIELD",
    "state": "NSW",
    "lat_dms": "345750S",
    "lon_dms": "1473100E",
    "latitude": -34.9638889,
    "longitude": 147.5166667,
    "source_page": 7
  },
  {
    "code": "HGTE",
    "name": "HARROGATE",
    "state": "SA",
    "lat_dms": "345712S",
    "lon_dms": "1390106E",
    "latitude": -34.9533333,
    "longitude": 139.0183333,
    "source_page": 7
  },
  {
    "code": "HARV",
    "name": "HARVEY",
    "state": "WA",
    "lat_dms": "330500S",
    "lon_dms": "1155400E",
    "latitude": -33.0833333,
    "longitude": 115.9,
    "source_page": 7
  },
  {
    "code": "HSTI",
    "name": "HASTINGS",
    "state": "QLD",
    "lat_dms": "281800S",
    "lon_dms": "1451100E",
    "latitude": -28.3,
    "longitude": 145.1833333,
    "source_page": 7
  },
  {
    "code": "HASS",
    "name": "HASTINGS PT",
    "state": "NSW",
    "lat_dms": "282130S",
    "lon_dms": "1533448E",
    "latitude": -28.3583333,
    "longitude": 153.58,
    "source_page": 7
  },
  {
    "code": "HATF",
    "name": "HATFIELD",
    "state": "NSW",
    "lat_dms": "334200S",
    "lon_dms": "1433900E",
    "latitude": -33.7,
    "longitude": 143.65,
    "source_page": 7
  },
  {
    "code": "HVI",
    "name": "HAVANNAH ISLAND",
    "state": "QLD",
    "lat_dms": "185040S",
    "lon_dms": "1463220E",
    "latitude": -18.8444444,
    "longitude": 146.5388889,
    "source_page": 7
  },
  {
    "code": "HPT",
    "name": "HAY PT",
    "state": "QLD",
    "lat_dms": "211640S",
    "lon_dms": "1491730E",
    "latitude": -21.2777778,
    "longitude": 149.2916667,
    "source_page": 7
  },
  {
    "code": "HAZ",
    "name": "HAZELWOOD ISLAND",
    "state": "QLD",
    "lat_dms": "201700S",
    "lon_dms": "1490500E",
    "latitude": -20.2833333,
    "longitude": 149.0833333,
    "source_page": 7
  },
  {
    "code": "HEAT",
    "name": "HEATHCOTE TOWNSHIP",
    "state": "VIC",
    "lat_dms": "365500S",
    "lon_dms": "1444200E",
    "latitude": -36.9166667,
    "longitude": 144.7,
    "source_page": 7
  },
  {
    "code": "HRR",
    "name": "HELENA RIVER RESV",
    "state": "WA",
    "lat_dms": "320005S",
    "lon_dms": "1161336E",
    "latitude": -32.0013889,
    "longitude": 116.2266667,
    "source_page": 7
  },
  {
    "code": "HNB",
    "name": "HELENSBURGH",
    "state": "NSW",
    "lat_dms": "341130S",
    "lon_dms": "1505830E",
    "latitude": -34.1916667,
    "longitude": 150.975,
    "source_page": 7
  },
  {
    "code": "HED",
    "name": "HELIDON",
    "state": "QLD",
    "lat_dms": "273300S",
    "lon_dms": "1520800E",
    "latitude": -27.55,
    "longitude": 152.1333333,
    "source_page": 7
  },
  {
    "code": "HNLY",
    "name": "HENLEY JETTY",
    "state": "SA",
    "lat_dms": "345511S",
    "lon_dms": "1382927E",
    "latitude": -34.9197222,
    "longitude": 138.4908333,
    "source_page": 7
  },
  {
    "code": "HKE",
    "name": "HERDSMAN LAKE",
    "state": "WA",
    "lat_dms": "315513S",
    "lon_dms": "1154850E",
    "latitude": -31.9202778,
    "longitude": 115.8138889,
    "source_page": 7
  },
  {
    "code": "HXB",
    "name": "HEXHAM BRIDGE",
    "state": "NSW",
    "lat_dms": "324948S",
    "lon_dms": "1514124E",
    "latitude": -32.83,
    "longitude": 151.69,
    "source_page": 7
  },
  {
    "code": "HIPA",
    "name": "HIGH PERFORMANCE AREA 3",
    "state": "QLD",
    "lat_dms": "270858S",
    "lon_dms": "1535049E",
    "latitude": -27.1494444,
    "longitude": 153.8469444,
    "source_page": 7
  },
  {
    "code": "HVTG",
    "name": "HIGH VOLTAGE",
    "state": "QLD",
    "lat_dms": "170051S",
    "lon_dms": "1454548E",
    "latitude": -17.0141667,
    "longitude": 145.7633333,
    "source_page": 7
  },
  {
    "code": "HIM",
    "name": "HILTON MINE",
    "state": "QLD",
    "lat_dms": "203400S",
    "lon_dms": "1392900E",
    "latitude": -20.5666667,
    "longitude": 139.4833333,
    "source_page": 7
  },
  {
    "code": "HNCH",
    "name": "HINCHINBROOK ISLAND",
    "state": "QLD",
    "lat_dms": "182200S",
    "lon_dms": "1461500E",
    "latitude": -18.3666667,
    "longitude": 146.25,
    "source_page": 7
  },
  {
    "code": "HDWL",
    "name": "HINZE DAM WALL",
    "state": "QLD",
    "lat_dms": "280300S",
    "lon_dms": "1531712E",
    "latitude": -28.05,
    "longitude": 153.2866667,
    "source_page": 7
  },
  {
    "code": "HCTY",
    "name": "HOBART CBD",
    "state": "TAS",
    "lat_dms": "425300S",
    "lon_dms": "1472000E",
    "latitude": -42.8833333,
    "longitude": 147.3333333,
    "source_page": 7
  },
  {
    "code": "HBKT",
    "name": "HOLBROOK TOWNSHIP",
    "state": "NSW",
    "lat_dms": "354350S",
    "lon_dms": "1471930E",
    "latitude": -35.7305556,
    "longitude": 147.325,
    "source_page": 7
  },
  {
    "code": "HOLM",
    "name": "HOLMES REEF",
    "state": "QLD",
    "lat_dms": "163000S",
    "lon_dms": "1480000E",
    "latitude": -16.5,
    "longitude": 148.0,
    "source_page": 7
  },
  {
    "code": "HBU",
    "name": "HOMEBUSH",
    "state": "QLD",
    "lat_dms": "211650S",
    "lon_dms": "1490300E",
    "latitude": -21.2805556,
    "longitude": 149.05,
    "source_page": 7
  },
  {
    "code": "HDP",
    "name": "HOOD PT",
    "state": "WA",
    "lat_dms": "342300S",
    "lon_dms": "1193400E",
    "latitude": -34.3833333,
    "longitude": 119.5666667,
    "source_page": 7
  },
  {
    "code": "HPI",
    "name": "HOPE INLET",
    "state": "NT",
    "lat_dms": "121940S",
    "lon_dms": "1310100E",
    "latitude": -12.3277778,
    "longitude": 131.0166667,
    "source_page": 7
  },
  {
    "code": "HVR",
    "name": "HOPE VALLEY RESV",
    "state": "SA",
    "lat_dms": "345100S",
    "lon_dms": "1384100E",
    "latitude": -34.85,
    "longitude": 138.6833333,
    "source_page": 7
  },
  {
    "code": "HORD",
    "name": "HORDERN HILLS",
    "state": "NT",
    "lat_dms": "203900S",
    "lon_dms": "1301900E",
    "latitude": -20.65,
    "longitude": 130.3166667,
    "source_page": 7
  },
  {
    "code": "HZWF",
    "name": "HORIZONTAL WATERFALLS",
    "state": "WA",
    "lat_dms": "162300S",
    "lon_dms": "1235800E",
    "latitude": -16.3833333,
    "longitude": 123.9666667,
    "source_page": 7
  },
  {
    "code": "HBVT",
    "name": "HORNIBROOK VIADUCT",
    "state": "QLD",
    "lat_dms": "271626S",
    "lon_dms": "1530421E",
    "latitude": -27.2738889,
    "longitude": 153.0725,
    "source_page": 7
  },
  {
    "code": "HSY",
    "name": "HORNSBY",
    "state": "NSW",
    "lat_dms": "334130S",
    "lon_dms": "1510624E",
    "latitude": -33.6916667,
    "longitude": 151.1066667,
    "source_page": 7
  },
  {
    "code": "HST",
    "name": "HOSKINSTOWN",
    "state": "NSW",
    "lat_dms": "352520S",
    "lon_dms": "1492700E",
    "latitude": -35.4222222,
    "longitude": 149.45,
    "source_page": 7
  },
  {
    "code": "HWG",
    "name": "HOWLONG",
    "state": "NSW",
    "lat_dms": "355835S",
    "lon_dms": "1463730E",
    "latitude": -35.9763889,
    "longitude": 146.625,
    "source_page": 7
  },
  {
    "code": "HGR",
    "name": "HUGH RIVER",
    "state": "NT",
    "lat_dms": "242100S",
    "lon_dms": "1332600E",
    "latitude": -24.35,
    "longitude": 133.4333333,
    "source_page": 7
  },
  {
    "code": "HWW",
    "name": "HUME WEIR WALL",
    "state": "VIC",
    "lat_dms": "360640S",
    "lon_dms": "1470130E",
    "latitude": -36.1111111,
    "longitude": 147.025,
    "source_page": 7
  },
  {
    "code": "HYH",
    "name": "HUMMOCKY HILLS",
    "state": "TAS",
    "lat_dms": "414400S",
    "lon_dms": "1471500E",
    "latitude": -41.7333333,
    "longitude": 147.25,
    "source_page": 7
  },
  {
    "code": "HRD",
    "name": "HUNGERFORD",
    "state": "NSW",
    "lat_dms": "290000S",
    "lon_dms": "1442400E",
    "latitude": -29.0,
    "longitude": 144.4,
    "source_page": 7
  },
  {
    "code": "IND",
    "name": "INDEE HS",
    "state": "WA",
    "lat_dms": "204710S",
    "lon_dms": "1183530E",
    "latitude": -20.7861111,
    "longitude": 118.5916667,
    "source_page": 7
  },
  {
    "code": "IDNA",
    "name": "INDIANA",
    "state": "NT",
    "lat_dms": "232000S",
    "lon_dms": "1352600E",
    "latitude": -23.3333333,
    "longitude": 135.4333333,
    "source_page": 7
  },
  {
    "code": "IDK",
    "name": "INDULKANA TOWNSHIP",
    "state": "SA",
    "lat_dms": "265757S",
    "lon_dms": "1331930E",
    "latitude": -26.9658333,
    "longitude": 133.325,
    "source_page": 7
  },
  {
    "code": "INGL",
    "name": "INGLEBURN",
    "state": "NSW",
    "lat_dms": "335818S",
    "lon_dms": "1505130E",
    "latitude": -33.9716667,
    "longitude": 150.8583333,
    "source_page": 7
  },
  {
    "code": "IPHL",
    "name": "IPPIA HILL",
    "state": "NT",
    "lat_dms": "250700S",
    "lon_dms": "1330300E",
    "latitude": -25.1166667,
    "longitude": 133.05,
    "source_page": 7
  },
  {
    "code": "ISB",
    "name": "ISRAELITE BAY",
    "state": "WA",
    "lat_dms": "333700S",
    "lon_dms": "1235300E",
    "latitude": -33.6166667,
    "longitude": 123.8833333,
    "source_page": 7
  },
  {
    "code": "JAC",
    "name": "JACKO'S JUNCTION",
    "state": "NT",
    "lat_dms": "121548S",
    "lon_dms": "1310212E",
    "latitude": -12.2633333,
    "longitude": 131.0366667,
    "source_page": 7
  },
  {
    "code": "JNR",
    "name": "JACKSON RIVER",
    "state": "QLD",
    "lat_dms": "113500S",
    "lon_dms": "1420000E",
    "latitude": -11.5833333,
    "longitude": 142.0,
    "source_page": 7
  },
  {
    "code": "JSL",
    "name": "JACOB'S SUGARLOAF",
    "state": "TAS",
    "lat_dms": "415630S",
    "lon_dms": "1471800E",
    "latitude": -41.9416667,
    "longitude": 147.3,
    "source_page": 7
  },
  {
    "code": "JACW",
    "name": "JACOB'S WELL",
    "state": "WA",
    "lat_dms": "320200S",
    "lon_dms": "1171200E",
    "latitude": -32.0333333,
    "longitude": 117.2,
    "source_page": 7
  },
  {
    "code": "JMPP",
    "name": "JAMES PRICE POINT",
    "state": "WA",
    "lat_dms": "172906S",
    "lon_dms": "1220837E",
    "latitude": -17.485,
    "longitude": 122.1436111,
    "source_page": 7
  },
  {
    "code": "JADL",
    "name": "JARRAHDALE",
    "state": "WA",
    "lat_dms": "322024S",
    "lon_dms": "1160430E",
    "latitude": -32.34,
    "longitude": 116.075,
    "source_page": 7
  },
  {
    "code": "JCK",
    "name": "JAY CREEK",
    "state": "NT",
    "lat_dms": "234712S",
    "lon_dms": "1333000E",
    "latitude": -23.7866667,
    "longitude": 133.5,
    "source_page": 8
  },
  {
    "code": "JEA",
    "name": "JEANNIE RIVER",
    "state": "QLD",
    "lat_dms": "144400S",
    "lon_dms": "1445200E",
    "latitude": -14.7333333,
    "longitude": 144.8666667,
    "source_page": 8
  },
  {
    "code": "JES",
    "name": "JESSIE GAP",
    "state": "NT",
    "lat_dms": "234455S",
    "lon_dms": "1340105E",
    "latitude": -23.7486111,
    "longitude": 134.0180556,
    "source_page": 8
  },
  {
    "code": "JIBN",
    "name": "JIBBON PT",
    "state": "NSW",
    "lat_dms": "340506S",
    "lon_dms": "1511012E",
    "latitude": -34.085,
    "longitude": 151.17,
    "source_page": 8
  },
  {
    "code": "JIA",
    "name": "JINDERA",
    "state": "NSW",
    "lat_dms": "355730S",
    "lon_dms": "1465315E",
    "latitude": -35.9583333,
    "longitude": 146.8875,
    "source_page": 8
  },
  {
    "code": "JDN",
    "name": "JONDARYAN",
    "state": "QLD",
    "lat_dms": "272200S",
    "lon_dms": "1513515E",
    "latitude": -27.3666667,
    "longitude": 151.5875,
    "source_page": 8
  },
  {
    "code": "JGK",
    "name": "JUG CREEK",
    "state": "QLD",
    "lat_dms": "220000S",
    "lon_dms": "1444200E",
    "latitude": -22.0,
    "longitude": 144.7,
    "source_page": 8
  },
  {
    "code": "JPP",
    "name": "JUMPINPIN",
    "state": "QLD",
    "lat_dms": "274400S",
    "lon_dms": "1532700E",
    "latitude": -27.7333333,
    "longitude": 153.45,
    "source_page": 8
  },
  {
    "code": "JUP",
    "name": "JUPITERS CASINO",
    "state": "QLD",
    "lat_dms": "280157S",
    "lon_dms": "1532546E",
    "latitude": -28.0325,
    "longitude": 153.4294444,
    "source_page": 8
  },
  {
    "code": "KKN",
    "name": "KAIMKILLENBUN",
    "state": "QLD",
    "lat_dms": "270400S",
    "lon_dms": "1512600E",
    "latitude": -27.0666667,
    "longitude": 151.4333333,
    "source_page": 8
  },
  {
    "code": "KAO",
    "name": "KALKALLO",
    "state": "VIC",
    "lat_dms": "373212S",
    "lon_dms": "1445642E",
    "latitude": -37.5366667,
    "longitude": 144.945,
    "source_page": 8
  },
  {
    "code": "KTS",
    "name": "KEATS ISLAND",
    "state": "QLD",
    "lat_dms": "94100S",
    "lon_dms": "1432700E",
    "latitude": -9.6833333,
    "longitude": 143.45,
    "source_page": 8
  },
  {
    "code": "KERW",
    "name": "KEERWEE",
    "state": "QLD",
    "lat_dms": "251300S",
    "lon_dms": "1512100E",
    "latitude": -25.2166667,
    "longitude": 151.35,
    "source_page": 8
  },
  {
    "code": "KALL",
    "name": "KENDALL",
    "state": "QLD",
    "lat_dms": "141200S",
    "lon_dms": "1413600E",
    "latitude": -14.2,
    "longitude": 141.6,
    "source_page": 8
  },
  {
    "code": "KSI",
    "name": "KESWICK ISLAND",
    "state": "QLD",
    "lat_dms": "205500S",
    "lon_dms": "1492500E",
    "latitude": -20.9166667,
    "longitude": 149.4166667,
    "source_page": 8
  },
  {
    "code": "KIAN",
    "name": "KIANDRA",
    "state": "NSW",
    "lat_dms": "355200S",
    "lon_dms": "1483000E",
    "latitude": -35.8666667,
    "longitude": 148.5,
    "source_page": 8
  },
  {
    "code": "KDBF",
    "name": "KIDSON BLUFF",
    "state": "WA",
    "lat_dms": "221500S",
    "lon_dms": "1250200E",
    "latitude": -22.25,
    "longitude": 125.0333333,
    "source_page": 8
  },
  {
    "code": "KLCY",
    "name": "KILCOY TOWNSHIP",
    "state": "QLD",
    "lat_dms": "265630S",
    "lon_dms": "1523350E",
    "latitude": -26.9416667,
    "longitude": 152.5638889,
    "source_page": 8
  },
  {
    "code": "KKV",
    "name": "KILKIVAN",
    "state": "QLD",
    "lat_dms": "260500S",
    "lon_dms": "1521448E",
    "latitude": -26.0833333,
    "longitude": 152.2466667,
    "source_page": 8
  },
  {
    "code": "KIM",
    "name": "KILMORE",
    "state": "VIC",
    "lat_dms": "371800S",
    "lon_dms": "1445715E",
    "latitude": -37.3,
    "longitude": 144.9541667,
    "source_page": 8
  },
  {
    "code": "KMG",
    "name": "KILMORE GAP",
    "state": "VIC",
    "lat_dms": "371800S",
    "lon_dms": "1445900E",
    "latitude": -37.3,
    "longitude": 144.9833333,
    "source_page": 8
  },
  {
    "code": "KCAS",
    "name": "KING CASCADES",
    "state": "WA",
    "lat_dms": "153730S",
    "lon_dms": "1251800E",
    "latitude": -15.625,
    "longitude": 125.3,
    "source_page": 8
  },
  {
    "code": "KRT",
    "name": "KING RANCH TULLY",
    "state": "QLD",
    "lat_dms": "180500S",
    "lon_dms": "1455000E",
    "latitude": -18.0833333,
    "longitude": 145.8333333,
    "source_page": 8
  },
  {
    "code": "KGLE",
    "name": "KINGLAKE",
    "state": "VIC",
    "lat_dms": "373120S",
    "lon_dms": "1452100E",
    "latitude": -37.5222222,
    "longitude": 145.35,
    "source_page": 8
  },
  {
    "code": "KBCH",
    "name": "KINGS BEACH",
    "state": "QLD",
    "lat_dms": "264819S",
    "lon_dms": "1530824E",
    "latitude": -26.8052778,
    "longitude": 153.14,
    "source_page": 8
  },
  {
    "code": "KCFF",
    "name": "KINGSCLIFF",
    "state": "NSW",
    "lat_dms": "281500S",
    "lon_dms": "1533418E",
    "latitude": -28.25,
    "longitude": 153.5716667,
    "source_page": 8
  },
  {
    "code": "KGT",
    "name": "KINGSTHORPE",
    "state": "QLD",
    "lat_dms": "272840S",
    "lon_dms": "1514850E",
    "latitude": -27.4777778,
    "longitude": 151.8138889,
    "source_page": 8
  },
  {
    "code": "KINN",
    "name": "KINGSTON CENTRE",
    "state": "VIC",
    "lat_dms": "375724S",
    "lon_dms": "1450436E",
    "latitude": -37.9566667,
    "longitude": 145.0766667,
    "source_page": 8
  },
  {
    "code": "KSPT",
    "name": "KISSING POINT",
    "state": "QLD",
    "lat_dms": "191430S",
    "lon_dms": "1464820E",
    "latitude": -19.2416667,
    "longitude": 146.8055556,
    "source_page": 8
  },
  {
    "code": "KNW",
    "name": "KONGWAK",
    "state": "VIC",
    "lat_dms": "383100S",
    "lon_dms": "1454300E",
    "latitude": -38.5166667,
    "longitude": 145.7166667,
    "source_page": 8
  },
  {
    "code": "KTG",
    "name": "KOOLATONG RIVER",
    "state": "NT",
    "lat_dms": "130500S",
    "lon_dms": "1353900E",
    "latitude": -13.0833333,
    "longitude": 135.65,
    "source_page": 8
  },
  {
    "code": "KBD",
    "name": "KOOMBOOLOOMBA DAM",
    "state": "QLD",
    "lat_dms": "175000S",
    "lon_dms": "1453600E",
    "latitude": -17.8333333,
    "longitude": 145.6,
    "source_page": 8
  },
  {
    "code": "KOOM",
    "name": "KOOMOOLOOBOOKA CAVE",
    "state": "SA",
    "lat_dms": "312900S",
    "lon_dms": "1293500E",
    "latitude": -31.4833333,
    "longitude": 129.5833333,
    "source_page": 8
  },
  {
    "code": "KANC",
    "name": "KOORANA CROCODILE FARM",
    "state": "QLD",
    "lat_dms": "231855S",
    "lon_dms": "1504534E",
    "latitude": -23.3152778,
    "longitude": 150.7594444,
    "source_page": 8
  },
  {
    "code": "KOT",
    "name": "KOOTINGAL",
    "state": "NSW",
    "lat_dms": "310300S",
    "lon_dms": "1510300E",
    "latitude": -31.05,
    "longitude": 151.05,
    "source_page": 8
  },
  {
    "code": "KOPP",
    "name": "KOPPEN PARK",
    "state": "QLD",
    "lat_dms": "165552S",
    "lon_dms": "1454402E",
    "latitude": -16.9311111,
    "longitude": 145.7338889,
    "source_page": 8
  },
  {
    "code": "KREE",
    "name": "KOREELAH",
    "state": "SA",
    "lat_dms": "355500S",
    "lon_dms": "1365500E",
    "latitude": -35.9166667,
    "longitude": 136.9166667,
    "source_page": 8
  },
  {
    "code": "KUN",
    "name": "KUNWARARA",
    "state": "QLD",
    "lat_dms": "225500S",
    "lon_dms": "1500800E",
    "latitude": -22.9166667,
    "longitude": 150.1333333,
    "source_page": 8
  },
  {
    "code": "KRN",
    "name": "KURANDA",
    "state": "QLD",
    "lat_dms": "164900S",
    "lon_dms": "1453815E",
    "latitude": -16.8166667,
    "longitude": 145.6375,
    "source_page": 8
  },
  {
    "code": "KRMD",
    "name": "KURMOND",
    "state": "NSW",
    "lat_dms": "333303S",
    "lon_dms": "1504114E",
    "latitude": -33.5508333,
    "longitude": 150.6872222,
    "source_page": 8
  },
  {
    "code": "KYP",
    "name": "KYEAMBA PARK",
    "state": "NSW",
    "lat_dms": "352650S",
    "lon_dms": "1473700E",
    "latitude": -35.4472222,
    "longitude": 147.6166667,
    "source_page": 8
  },
  {
    "code": "KYE",
    "name": "KYEAMBA TOWER",
    "state": "NSW",
    "lat_dms": "353130S",
    "lon_dms": "1473530E",
    "latitude": -35.525,
    "longitude": 147.5916667,
    "source_page": 8
  },
  {
    "code": "KTN",
    "name": "KYNETON",
    "state": "VIC",
    "lat_dms": "371450S",
    "lon_dms": "1442730E",
    "latitude": -37.2472222,
    "longitude": 144.4583333,
    "source_page": 8
  },
  {
    "code": "LDH",
    "name": "LADYSMITH",
    "state": "NSW",
    "lat_dms": "351240S",
    "lon_dms": "1473100E",
    "latitude": -35.2111111,
    "longitude": 147.5166667,
    "source_page": 8
  },
  {
    "code": "LDLY",
    "name": "LAIDLEY",
    "state": "QLD",
    "lat_dms": "273800S",
    "lon_dms": "1522300E",
    "latitude": -27.6333333,
    "longitude": 152.3833333,
    "source_page": 8
  },
  {
    "code": "LKT",
    "name": "LAKE ALBERT",
    "state": "NSW",
    "lat_dms": "351040S",
    "lon_dms": "1472148E",
    "latitude": -35.1777778,
    "longitude": 147.3633333,
    "source_page": 8
  },
  {
    "code": "LKAD",
    "name": "LAKE AMADEUS",
    "state": "NT",
    "lat_dms": "243448S",
    "lon_dms": "1302742E",
    "latitude": -24.58,
    "longitude": 130.4616667,
    "source_page": 8
  },
  {
    "code": "LBT",
    "name": "LAKE BATHURST",
    "state": "NSW",
    "lat_dms": "350300S",
    "lon_dms": "1494100E",
    "latitude": -35.05,
    "longitude": 149.6833333,
    "source_page": 8
  },
  {
    "code": "LKON",
    "name": "LAKE CLARENDON",
    "state": "QLD",
    "lat_dms": "272930S",
    "lon_dms": "1522100E",
    "latitude": -27.4916667,
    "longitude": 152.35,
    "source_page": 8
  },
  {
    "code": "LCR",
    "name": "LAKE CORANGAMITE",
    "state": "VIC",
    "lat_dms": "380600S",
    "lon_dms": "1433100E",
    "latitude": -38.1,
    "longitude": 143.5166667,
    "source_page": 8
  },
  {
    "code": "LCDI",
    "name": "LAKE CURRIMUNDI",
    "state": "QLD",
    "lat_dms": "264555S",
    "lon_dms": "1530812E",
    "latitude": -26.7652778,
    "longitude": 153.1366667,
    "source_page": 8
  },
  {
    "code": "LAD",
    "name": "LAKE DEANE",
    "state": "NT",
    "lat_dms": "124400S",
    "lon_dms": "1310100E",
    "latitude": -12.7333333,
    "longitude": 131.0166667,
    "source_page": 8
  },
  {
    "code": "LDAP",
    "name": "LAKE DISAPPOINTMENT",
    "state": "WA",
    "lat_dms": "233000S",
    "lon_dms": "1224000E",
    "latitude": -23.5,
    "longitude": 122.6666667,
    "source_page": 8
  },
  {
    "code": "LKEC",
    "name": "LAKE ECHO",
    "state": "TAS",
    "lat_dms": "421000S",
    "lon_dms": "1463800E",
    "latitude": -42.1666667,
    "longitude": 146.6333333,
    "source_page": 9
  },
  {
    "code": "LEM",
    "name": "LAKE EPSOM",
    "state": "QLD",
    "lat_dms": "212920S",
    "lon_dms": "1485000E",
    "latitude": -21.4888889,
    "longitude": 148.8333333,
    "source_page": 9
  },
  {
    "code": "LEYN",
    "name": "LAKE EYRE NORTH",
    "state": "SA",
    "lat_dms": "282500S",
    "lon_dms": "1371800E",
    "latitude": -28.4166667,
    "longitude": 137.3,
    "source_page": 9
  },
  {
    "code": "LFS",
    "name": "LAKE FINNISS",
    "state": "NT",
    "lat_dms": "122250S",
    "lon_dms": "1312830E",
    "latitude": -12.3805556,
    "longitude": 131.475,
    "source_page": 9
  },
  {
    "code": "LFRO",
    "name": "LAKE FROME",
    "state": "SA",
    "lat_dms": "303800S",
    "lon_dms": "1395200E",
    "latitude": -30.6333333,
    "longitude": 139.8666667,
    "source_page": 9
  },
  {
    "code": "LGGN",
    "name": "LAKE GEORGE NORTH",
    "state": "NSW",
    "lat_dms": "345918S",
    "lon_dms": "1492330E",
    "latitude": -34.9883333,
    "longitude": 149.3916667,
    "source_page": 9
  },
  {
    "code": "LGGS",
    "name": "LAKE GEORGE SOUTH",
    "state": "NSW",
    "lat_dms": "351210S",
    "lon_dms": "1492430E",
    "latitude": -35.2027778,
    "longitude": 149.4083333,
    "source_page": 9
  },
  {
    "code": "LGEN",
    "name": "LAKE GILLEN",
    "state": "WA",
    "lat_dms": "261300S",
    "lon_dms": "1243600E",
    "latitude": -26.2166667,
    "longitude": 124.6,
    "source_page": 9
  },
  {
    "code": "LGDA",
    "name": "LAKE GININDERRA",
    "state": "ACT",
    "lat_dms": "351400S",
    "lon_dms": "1490406E",
    "latitude": -35.2333333,
    "longitude": 149.0683333,
    "source_page": 9
  },
  {
    "code": "LKH",
    "name": "LAKE HINDMARSH",
    "state": "VIC",
    "lat_dms": "360700S",
    "lon_dms": "1415200E",
    "latitude": -36.1166667,
    "longitude": 141.8666667,
    "source_page": 9
  },
  {
    "code": "LKIM",
    "name": "LAKE ILMA",
    "state": "WA",
    "lat_dms": "291500S",
    "lon_dms": "1274600E",
    "latitude": -29.25,
    "longitude": 127.7666667,
    "source_page": 9
  },
  {
    "code": "LKG",
    "name": "LAKE KING",
    "state": "WA",
    "lat_dms": "330500S",
    "lon_dms": "1194000E",
    "latitude": -33.0833333,
    "longitude": 119.6666667,
    "source_page": 9
  },
  {
    "code": "LMC",
    "name": "LAKE MANCHESTER",
    "state": "QLD",
    "lat_dms": "272900S",
    "lon_dms": "1524600E",
    "latitude": -27.4833333,
    "longitude": 152.7666667,
    "source_page": 9
  },
  {
    "code": "LME",
    "name": "LAKE MAURICE",
    "state": "SA",
    "lat_dms": "292400S",
    "lon_dms": "1305700E",
    "latitude": -29.4,
    "longitude": 130.95,
    "source_page": 9
  },
  {
    "code": "LMWL",
    "name": "LAKE MINIGWAL",
    "state": "WA",
    "lat_dms": "293500S",
    "lon_dms": "1231000E",
    "latitude": -29.5833333,
    "longitude": 123.1666667,
    "source_page": 9
  },
  {
    "code": "LOOH",
    "name": "LAKE MOOGERAH",
    "state": "QLD",
    "lat_dms": "280200S",
    "lon_dms": "1523300E",
    "latitude": -28.0333333,
    "longitude": 152.55,
    "source_page": 9
  },
  {
    "code": "LKNL",
    "name": "LAKE NEALE",
    "state": "NT",
    "lat_dms": "241450S",
    "lon_dms": "1295759E",
    "latitude": -24.2472222,
    "longitude": 129.9663889,
    "source_page": 9
  },
  {
    "code": "LRID",
    "name": "LAKE RAESIDE",
    "state": "WA",
    "lat_dms": "293300S",
    "lon_dms": "1221800E",
    "latitude": -29.55,
    "longitude": 122.3,
    "source_page": 9
  },
  {
    "code": "LRAN",
    "name": "LAKE RASON",
    "state": "WA",
    "lat_dms": "284000S",
    "lon_dms": "1241700E",
    "latitude": -28.6666667,
    "longitude": 124.2833333,
    "source_page": 9
  },
  {
    "code": "LSPR",
    "name": "LAKE SURPRISE",
    "state": "NT",
    "lat_dms": "201400S",
    "lon_dms": "1314800E",
    "latitude": -20.2333333,
    "longitude": 131.8,
    "source_page": 9
  },
  {
    "code": "LTL",
    "name": "LAKE THROSSELL",
    "state": "WA",
    "lat_dms": "273800S",
    "lon_dms": "1240500E",
    "latitude": -27.6333333,
    "longitude": 124.0833333,
    "source_page": 9
  },
  {
    "code": "LTRR",
    "name": "LAKE TORRENS",
    "state": "SA",
    "lat_dms": "312518S",
    "lon_dms": "1380512E",
    "latitude": -31.4216667,
    "longitude": 138.0866667,
    "source_page": 9
  },
  {
    "code": "WITE",
    "name": "LAKE WHITE",
    "state": "NT",
    "lat_dms": "210600S",
    "lon_dms": "1290300E",
    "latitude": -21.1,
    "longitude": 129.05,
    "source_page": 9
  },
  {
    "code": "LYEO",
    "name": "LAKE YEO",
    "state": "WA",
    "lat_dms": "280305S",
    "lon_dms": "1243306E",
    "latitude": -28.0513889,
    "longitude": 124.5516667,
    "source_page": 9
  },
  {
    "code": "LKEE",
    "name": "LAKES ENTRANCE",
    "state": "VIC",
    "lat_dms": "375200S",
    "lon_dms": "1480000E",
    "latitude": -37.8666667,
    "longitude": 148.0,
    "source_page": 9
  },
  {
    "code": "LCD",
    "name": "LANCEFIELD",
    "state": "VIC",
    "lat_dms": "371640S",
    "lon_dms": "1444340E",
    "latitude": -37.2777778,
    "longitude": 144.7277778,
    "source_page": 9
  },
  {
    "code": "LANC",
    "name": "LANCELIN TOWNSHIP",
    "state": "WA",
    "lat_dms": "310107S",
    "lon_dms": "1151942E",
    "latitude": -31.0186111,
    "longitude": 115.3283333,
    "source_page": 9
  },
  {
    "code": "LGH",
    "name": "LANGHAM",
    "state": "QLD",
    "lat_dms": "221200S",
    "lon_dms": "1500600E",
    "latitude": -22.2,
    "longitude": 150.1,
    "source_page": 9
  },
  {
    "code": "LHCK",
    "name": "LANGHORNE CREEK",
    "state": "SA",
    "lat_dms": "351745S",
    "lon_dms": "1390240E",
    "latitude": -35.2958333,
    "longitude": 139.0444444,
    "source_page": 9
  },
  {
    "code": "LSDW",
    "name": "LANSDOWNE",
    "state": "WA",
    "lat_dms": "173654S",
    "lon_dms": "1264436E",
    "latitude": -17.615,
    "longitude": 126.7433333,
    "source_page": 9
  },
  {
    "code": "LUY",
    "name": "LATROBE UNIVERSITY",
    "state": "VIC",
    "lat_dms": "374300S",
    "lon_dms": "1450300E",
    "latitude": -37.7166667,
    "longitude": 145.05,
    "source_page": 9
  },
  {
    "code": "LAUD",
    "name": "LAUDERDALE",
    "state": "TAS",
    "lat_dms": "425400S",
    "lon_dms": "1473000E",
    "latitude": -42.9,
    "longitude": 147.5,
    "source_page": 9
  },
  {
    "code": "LVAB",
    "name": "LAVERTON",
    "state": "VIC",
    "lat_dms": "375149S",
    "lon_dms": "1444445E",
    "latitude": -37.8636111,
    "longitude": 144.7458333,
    "source_page": 9
  },
  {
    "code": "TON",
    "name": "LAVERTON BOM TOWER",
    "state": "VIC",
    "lat_dms": "375119S",
    "lon_dms": "1444519E",
    "latitude": -37.8552778,
    "longitude": 144.7552778,
    "source_page": 9
  },
  {
    "code": "LWG",
    "name": "LAWRENCE GORGE",
    "state": "NT",
    "lat_dms": "240100S",
    "lon_dms": "1332430E",
    "latitude": -24.0166667,
    "longitude": 133.4083333,
    "source_page": 9
  },
  {
    "code": "LAOS",
    "name": "LAYOAK ISLAND",
    "state": "QLD",
    "lat_dms": "95100S",
    "lon_dms": "1431900E",
    "latitude": -9.85,
    "longitude": 143.3166667,
    "source_page": 9
  },
  {
    "code": "LPT",
    "name": "LEE PT",
    "state": "NT",
    "lat_dms": "122000S",
    "lon_dms": "1305400E",
    "latitude": -12.3333333,
    "longitude": 130.9,
    "source_page": 9
  },
  {
    "code": "LPD",
    "name": "LEOPOLD",
    "state": "VIC",
    "lat_dms": "381130S",
    "lon_dms": "1442800E",
    "latitude": -38.1916667,
    "longitude": 144.4666667,
    "source_page": 9
  },
  {
    "code": "LIHR",
    "name": "LIGHTHORSE INTERCHANGE M7/M4",
    "state": "NSW",
    "lat_dms": "334753S",
    "lon_dms": "1505115E",
    "latitude": -33.7980556,
    "longitude": 150.8541667,
    "source_page": 9
  },
  {
    "code": "LIY",
    "name": "LILYDALE",
    "state": "TAS",
    "lat_dms": "411500S",
    "lon_dms": "1471300E",
    "latitude": -41.25,
    "longitude": 147.2166667,
    "source_page": 9
  },
  {
    "code": "LOWS",
    "name": "LINDENOW SOUTH",
    "state": "VIC",
    "lat_dms": "374942S",
    "lon_dms": "1472600E",
    "latitude": -37.8283333,
    "longitude": 147.4333333,
    "source_page": 9
  },
  {
    "code": "LVE",
    "name": "LINVILLE",
    "state": "QLD",
    "lat_dms": "265100S",
    "lon_dms": "1521600E",
    "latitude": -26.85,
    "longitude": 152.2666667,
    "source_page": 9
  },